"","long","lat","city"
"1","-87.9064736","43.0389025","Milwaukee,Wisconsin"
"2","-95.992775","36.1539816","Tulsa,Oklahoma"
"3","-115.1745559","36.1023715","New York,New York"
"4","-75.1196199","39.9259463","Camden,New Jersey"
"5","-118.3531311","33.9616801","Inglewood,California"
"6","-73.5929056","40.7003793","Uniondale,New York"
"7","-71.0588801","42.3600825","Boston,Massachusetts"
"8","-122.4442906","47.2528768","Tacoma,Washington"
"9","-74.1723667","40.735657","Newark,New Jersey"
"10","-86.7816016","36.1626638","Nashville,Tennessee"
"11","-87.6297982","41.8781136","Chicago,Illinois"
"12","-121.8863286","37.3382082","San Jose,California"
"13","-90.1994042","38.6270025","St Louis,Missouri"
"14","-93.0899578","44.9537029","Saint Paul,Minnesota"
"15","-84.5120196","39.1031182","Cincinnati,Ohio"
"16","-82.4571776","27.950575","Tampa,Florida"
"17","-95.9979883","41.2523634","Omaha,Nebraska"
"18","-73.9441579","40.6781784","Brooklyn,New York"
"19","-96.7311034","43.5445959","Sioux Falls,South Dakota"
"20","-80.0548894","26.7104088","West Palm Beach,Florida"
"21","-72.6850932","41.7637111","Hartford,Connecticut"
"22","-85.7584557","38.2526647","Louisville,Kentucky"
"23","-119.7725868","36.7468422","Fresno,California"
"24","-75.977985","36.8529263","Virginia Beach,Virginia"
"25","-79.9958864","40.4406248","Pittsburgh,Pennsylvania"
"26","-80.256595","26.1669711","Sunrise,Florida"
"27","-85.6680863","42.9633599","Grand Rapids,Michigan"
"28","-92.2670941","34.769536","North Little Rock,Arkansas"
"29","-90.0715323","29.9510658","New Orleans,Louisiana"
"30","-78.3886312","42.9011708","Darien Center,New York"
"31","-111.8910474","40.7607793","Salt Lake City,Utah"
"32","-74.4229266","39.3642834","Atlantic City,New Jersey"
"33","-122.3320708","47.6062095","Seattle,Washington"
"34","-118.4003563","34.0736204","Beverly Hills,California"
"35","-77.0368707","38.9071923","Washington,District Of Columbia"
"36","-80.8431267","35.2270869","Charlotte,North Carolina"
"37","-71.2190578","42.0334565","Mansfield,Massachusetts"
"38","-78.6381787","35.7795897","Raleigh,North Carolina"
"39","-118.1445155","34.1477849","Pasadena,California"
"40","-84.3879824","33.7489954","Atlanta,Georgia"
"41","-96.9488945","32.8140177","Irving,Texas"
"42","-75.1652215","39.9525839","Philadelphia,Pennsylvania"
"43","-82.2542834","34.7370639","Simpsonville,South Carolina"
"44","-81.3792365","28.5383355","Orlando,Florida"
"45","-95.4612625","30.1658207","Woodlands,Texas"
"46","-86.158068","39.768403","Indianapolis,Indiana"
"47","-74.0970865","40.833989","East Rutherford,New Jersey"
"48","-97.7430608","30.267153","Austin,Texas"
"49","-97.1080656","32.735687","Arlington,Texas"
"50","-112.1859866","33.5386523","Glendale,Arizona"
"51","-122.4194155","37.7749295","San Francisco,California"
"52","-83.0457538","42.331427","Detroit,Michigan"
"53","-96.7969879","32.7766642","Dallas,Texas"
"54","-122.0838511","37.3860517","Mountain View,California"
"55","-83.0302033","42.5803122","Sterling Heights,Michigan"
"56","-71.2478251","42.0653812","Foxborough,Massachusetts"
"57","-121.9552356","37.3541079","Santa Clara,California"
"58","-104.990251","39.7392358","Denver,Colorado"
"59","-80.244216","36.0998596","Winston Salem,North Carolina"
"60","-80.1917902","25.7616798","Miami,Florida"
"61","-117.1610838","32.715738","San Diego,California"
"62","-81.6943605","41.49932","Cleveland,Ohio"
"63","-118.3286614","34.0928092","Hollywood,California"
"64","-95.3698028","29.7604267","Houston,Texas"
"65","-93.2650108","44.977753","Minneapolis,Minnesota"
"66","-81.655651","30.3321838","Jacksonville,Florida"
"67","-112.0740373","33.4483771","Phoenix,Arizona"
"68","-115.1398296","36.1699412","Las Vegas,Nevada"
"69","-87.8721602","41.9867507","Rosemont,Illinois"
"70","-117.0841955","32.6400541","Chula Vista,California"
"71","-76.6502468","40.2859239","Hershey,Pennsylvania"
"72","-77.3063733","38.8462236","Fairfax,Virginia"
"73","-117.9143012","33.8365932","Anaheim,California"
"74","-82.9987942","39.9611755","Columbus,Ohio"
"75","-78.4766781","38.0293059","Charlottesville,Virginia"
"76","-94.5785667","39.0997265","Kansas City,Missouri"
"77","-95.6349463","29.6196787","Sugar Land,Texas"
"78","-122.6764815","45.5230622","Portland,Oregon"
"79","-119.8558822","47.0790224","George,Washington"
"80","-84.5037164","38.0405837","Lexington,Kentucky"
"81","-117.6508876","34.0633443","Ontario,California"
"82","-121.4943996","38.5815719","Sacramento,California"
"83","-96.6851982","40.8257625","Lincoln,Nebraska"
"84","-106.6055534","35.0853336","Albuquerque,New Mexico"
"85","-90.0489801","35.1495343","Memphis,Tennessee"
"86","-81.4845585","41.1339449","Cuyahoga Falls,Ohio"
"87","-76.8966397","38.9340002","Landover,Maryland"
"88","-98.4936282","29.4241219","San Antonio,Texas"
"89","-79.7919754","36.0726354","Greensboro,North Carolina"
"90","-122.2711137","37.8043637","Oakland,California"
"91","-84.2940899","34.0753762","Alpharetta,Georgia"
"92","-76.1474244","43.0481221","Syracuse,New York"
"93","-87.7932939","41.5731442","Tinley Park,Illinois"
"94","-122.2284532","47.3073228","Auburn,Washington"
"95","-90.4298401","38.7131073","Maryland Heights,Missouri"
"96","-72.1100945","41.4316905","Uncasville,Connecticut"
"97","-86.0085955","40.0455917","Noblesville,Indiana"
"98","-81.0348144","34.0007104","Columbia,South Carolina"
"99","-83.4192941","42.7351196","Clarkston,Michigan"
"100","-82.3940104","34.8526176","Greenville,South Carolina"
"101","-118.7616764","34.1533395","Agoura Hills,California"
"102","-122.7426008","45.815115","Ridgefield,Washington"
"103","-77.5367043","38.723303","Bristow,Virginia"
"104","-122.272747","37.8715926","Berkeley,California"
"105","-93.2650108","44.977753"," Minneapolis,Minnesota"
"106","-84.9877094","32.4609764","Columbus,Georgia"
"107","-93.7321228","32.5159852","Bossier City,Louisiana"
"108","-74.1840322","40.3451095","Holmdel,New Jersey"
"109","-157.8583333","21.3069444","Honolulu,Hawaii"
"110","-118.2436849","34.0522342","Los Angeles,California"
"111","-86.80249","33.5206608","Birmingham,Alabama"
"112","-88.8853078","30.3960318","Biloxi,Mississippi"
"113","-93.0899578","44.9537029","St Paul,Minnesota"
"114","-84.1916069","39.7589478","Dayton,Ohio"
"115","-114.5730208","35.1677771","Laughlin,Nevada"
"116","-73.5101258","40.6837121","Wantagh,New York"
"117","-73.7845651","43.0831301","Saratoga Springs,New York"
"118","-90.5151342","41.5067003","Moline,Illinois"
"119","-98.2630684","26.1003547","Hidalgo,Texas"
"120","-92.0198427","30.2240897","Lafayette,Louisiana"
"121","-83.1499322","42.6583661","Rochester Hills,Michigan"
"122","-80.3928423","40.3820132","Burgettstown,Pennsylvania"
"123","-77.8653126","40.8147955","University Park,Pennsylvania"
"124","-117.8265049","33.6845673","Irvine,California"
"125","-92.7385321","44.5683003","Welch,Minnesota"
"126","-73.7562317","42.6525793","Albany,New York"
"127","-97.5164276","35.4675602","Oklahoma City,Oklahoma"
"128","-119.9399029","38.9624079","Stateline,Nevada"
"129","-90.1994042","38.6270025","St. Louis,Missouri"
"130","-83.555212","41.6639383","Toledo,Ohio"
"131","-75.9268747","40.3356483","Reading,Pennsylvania"
"132","-87.5867598","30.2697033","Orange Beach,Alabama"
"133","-97.8202888","30.505198","Cedar Park,Texas"
"134","-121.4230133","39.0098946","Wheatland,California"
"135","-96.6705503","33.1031744","Allen,Texas"
"136","-79.9748103","32.8546197","North Charleston,South Carolina"
"137","-88.5445447","42.6727927","Elkhorn,Wisconsin"
"138","-72.8230736","41.4570108","Wallingford,Connecticut"
"139","-89.0939952","42.2711311","Rockford,Illinois"
"140","-77.0190228","38.7886944","National Harbor ,Maryland"
"141","-91.6656232","41.9778795","Cedar Rapids,Iowa"
"142","-89.9859158","32.2732024","Brandon,Mississippi"
"143","-96.3971233","33.9924186","Durant,Oklahoma"
"144","-106.7636538","32.3199396","Las Cruces,New Mexico"
"145","-77.2816984","42.887535","Canandaigua,New York"
"146","-123.0867536","44.0520691","Eugene,Oregon"
"147","-80.0547626","37.2934681","Salem,Virginia"
"148","-92.3340724","38.9517053","Columbia,Missouri"
"149","-87.5691735","33.2098407","Tuscaloosa,Alabama"
"150","-75.3704579","40.6259316","Bethlehem,Pennsylvania"
"151","-97.396381","27.8005828","Corpus Christi,Texas"
"152","-116.2146068","43.6187102","Boise,Idaho"
"153","-117.9188221","33.6412156","Costa Mesa,California"
"154","-106.4850217","31.7618778","El Paso,Texas"
"155","-87.5710898","37.9715592","Evansville,Indiana"
"156","-90.0022958","34.9918587","Southaven,Mississippi"
"157","-80.7290559","28.2666258","Viera,Florida"
"158","-95.8608333","41.2619444","Council Bluffs,Iowa"
"159","-99.4803241","27.5305671","Laredo,Texas"
"160","-74.8719284","41.6837659","Bethel,New York"
"161","-121.7405167","38.5449065","Davis,California"
"162","-81.3124341","29.9012437","St Augustine,Florida"
"163","-76.6121893","39.2903848","Baltimore,Maryland"
"164","-94.1185366","36.3320196","Rogers,Arkansas"
"165","-68.7778138","44.8011821","Bangor,Maine"
"166","-97.0328547","47.9252568","Grand Forks,North Dakota"
"167","-94.8835754","39.059726",NA
"168","-91.2395807","43.8013556",NA
"169","-89.4012302","43.0730517",NA
"170","-94.8835754","39.059726",NA
"171","-91.2395807","43.8013556",NA
"172","-89.4012302","43.0730517",NA
"173","-94.8835754","39.059726",NA
"174","-91.2395807","43.8013556",NA
"175","-89.4012302","43.0730517",NA
"176","-94.8835754","39.059726",NA
"177","-91.2395807","43.8013556",NA
"178","-89.4012302","43.0730517",NA
"179","-94.8835754","39.059726",NA
"180","-91.2395807","43.8013556",NA
"181","-89.4012302","43.0730517",NA
"182","-73.8648268","40.8447819",NA
"183","-73.8648268","40.8447819",NA
"184","-73.8648268","40.8447819",NA
"185","-73.8648268","40.8447819",NA
"186","-112.3576567","33.4353394",NA
"187","-87.2169149","30.421309",NA
"188","-73.8648268","40.8447819",NA
"189","-87.2169149","30.421309",NA
"190","-119.8138027","39.5296329",NA
"191","-73.8648268","40.8447819",NA
"192","-73.8648268","40.8447819",NA
"193","-73.8648268","40.8447819",NA
"194","-73.8648268","40.8447819",NA
"195","-73.8648268","40.8447819",NA
"196","-73.8648268","40.8447819",NA
"197","-73.8648268","40.8447819",NA
"198","-73.8648268","40.8447819",NA
"199","-73.8648268","40.8447819",NA
"200","-119.8138027","39.5296329",NA
"201","-73.8648268","40.8447819",NA
"202","-73.8648268","40.8447819",NA
"203","-73.8648268","40.8447819",NA
"204","-119.8138027","39.5296329",NA
"205","-73.8648268","40.8447819",NA
"206","-73.8648268","40.8447819",NA
"207","-86.5861037","34.7303688",NA
"208","-73.8648268","40.8447819",NA
"209","-91.1403196","30.4582829",NA
"210","-71.4547891","42.9956397",NA
"211","-73.8648268","40.8447819",NA
"212","-73.8648268","40.8447819",NA
"213","-74.1562551","40.7464901",NA
"214","-71.4547891","42.9956397",NA
"215","-73.8648268","40.8447819",NA
"216","-73.8648268","40.8447819",NA
"217","-73.8648268","40.8447819",NA
"218","-73.8648268","40.8447819",NA
"219","-91.1403196","30.4582829",NA
"220","-73.8648268","40.8447819",NA
"221","-73.8648268","40.8447819",NA
"222","-121.530234","38.5804609",NA
"223","-78.7811169","35.79154",NA
"224","-86.5861037","34.7303688",NA
"225","-73.8648268","40.8447819",NA
"226","-73.8648268","40.8447819",NA
"227","-73.8648268","40.8447819",NA
"228","-73.8648268","40.8447819",NA
"229","-112.3576567","33.4353394",NA
"230","-87.2169149","30.421309",NA
"231","-73.8648268","40.8447819",NA
"232","-87.2169149","30.421309",NA
"233","-119.8138027","39.5296329",NA
"234","-73.8648268","40.8447819",NA
"235","-73.8648268","40.8447819",NA
"236","-73.8648268","40.8447819",NA
"237","-73.8648268","40.8447819",NA
"238","-73.8648268","40.8447819",NA
"239","-73.8648268","40.8447819",NA
"240","-73.8648268","40.8447819",NA
"241","-73.8648268","40.8447819",NA
"242","-73.8648268","40.8447819",NA
"243","-119.8138027","39.5296329",NA
"244","-73.8648268","40.8447819",NA
"245","-73.8648268","40.8447819",NA
"246","-73.8648268","40.8447819",NA
"247","-119.8138027","39.5296329",NA
"248","-73.8648268","40.8447819",NA
"249","-73.8648268","40.8447819",NA
"250","-86.5861037","34.7303688",NA
"251","-73.8648268","40.8447819",NA
"252","-91.1403196","30.4582829",NA
"253","-71.4547891","42.9956397",NA
"254","-73.8648268","40.8447819",NA
"255","-73.8648268","40.8447819",NA
"256","-74.1562551","40.7464901",NA
"257","-71.4547891","42.9956397",NA
"258","-73.8648268","40.8447819",NA
"259","-73.8648268","40.8447819",NA
"260","-73.8648268","40.8447819",NA
"261","-73.8648268","40.8447819",NA
"262","-91.1403196","30.4582829",NA
"263","-73.8648268","40.8447819",NA
"264","-73.8648268","40.8447819",NA
"265","-121.530234","38.5804609",NA
"266","-78.7811169","35.79154",NA
"267","-86.5861037","34.7303688",NA
"268","-73.8648268","40.8447819",NA
"269","-73.8648268","40.8447819",NA
"270","-73.8648268","40.8447819",NA
"271","-73.8648268","40.8447819",NA
"272","-112.3576567","33.4353394",NA
"273","-87.2169149","30.421309",NA
"274","-73.8648268","40.8447819",NA
"275","-87.2169149","30.421309",NA
"276","-119.8138027","39.5296329",NA
"277","-73.8648268","40.8447819",NA
"278","-73.8648268","40.8447819",NA
"279","-73.8648268","40.8447819",NA
"280","-73.8648268","40.8447819",NA
"281","-73.8648268","40.8447819",NA
"282","-73.8648268","40.8447819",NA
"283","-73.8648268","40.8447819",NA
"284","-73.8648268","40.8447819",NA
"285","-73.8648268","40.8447819",NA
"286","-119.8138027","39.5296329",NA
"287","-73.8648268","40.8447819",NA
"288","-73.8648268","40.8447819",NA
"289","-73.8648268","40.8447819",NA
"290","-119.8138027","39.5296329",NA
"291","-73.8648268","40.8447819",NA
"292","-73.8648268","40.8447819",NA
"293","-86.5861037","34.7303688",NA
"294","-73.8648268","40.8447819",NA
"295","-91.1403196","30.4582829",NA
"296","-71.4547891","42.9956397",NA
"297","-73.8648268","40.8447819",NA
"298","-73.8648268","40.8447819",NA
"299","-74.1562551","40.7464901",NA
"300","-71.4547891","42.9956397",NA
"301","-73.8648268","40.8447819",NA
"302","-73.8648268","40.8447819",NA
"303","-73.8648268","40.8447819",NA
"304","-73.8648268","40.8447819",NA
"305","-91.1403196","30.4582829",NA
"306","-73.8648268","40.8447819",NA
"307","-73.8648268","40.8447819",NA
"308","-121.530234","38.5804609",NA
"309","-78.7811169","35.79154",NA
"310","-86.5861037","34.7303688",NA
"311","-73.8648268","40.8447819",NA
"312","-73.8648268","40.8447819",NA
"313","-73.8648268","40.8447819",NA
"314","-73.8648268","40.8447819",NA
"315","-112.3576567","33.4353394",NA
"316","-87.2169149","30.421309",NA
"317","-73.8648268","40.8447819",NA
"318","-87.2169149","30.421309",NA
"319","-119.8138027","39.5296329",NA
"320","-73.8648268","40.8447819",NA
"321","-73.8648268","40.8447819",NA
"322","-73.8648268","40.8447819",NA
"323","-73.8648268","40.8447819",NA
"324","-73.8648268","40.8447819",NA
"325","-73.8648268","40.8447819",NA
"326","-73.8648268","40.8447819",NA
"327","-73.8648268","40.8447819",NA
"328","-73.8648268","40.8447819",NA
"329","-119.8138027","39.5296329",NA
"330","-73.8648268","40.8447819",NA
"331","-73.8648268","40.8447819",NA
"332","-73.8648268","40.8447819",NA
"333","-119.8138027","39.5296329",NA
"334","-73.8648268","40.8447819",NA
"335","-73.8648268","40.8447819",NA
"336","-86.5861037","34.7303688",NA
"337","-73.8648268","40.8447819",NA
"338","-91.1403196","30.4582829",NA
"339","-71.4547891","42.9956397",NA
"340","-73.8648268","40.8447819",NA
"341","-73.8648268","40.8447819",NA
"342","-74.1562551","40.7464901",NA
"343","-71.4547891","42.9956397",NA
"344","-73.8648268","40.8447819",NA
"345","-73.8648268","40.8447819",NA
"346","-73.8648268","40.8447819",NA
"347","-73.8648268","40.8447819",NA
"348","-91.1403196","30.4582829",NA
"349","-73.8648268","40.8447819",NA
"350","-73.8648268","40.8447819",NA
"351","-121.530234","38.5804609",NA
"352","-78.7811169","35.79154",NA
"353","-86.5861037","34.7303688",NA
"354","-73.8648268","40.8447819",NA
"355","-73.8648268","40.8447819",NA
"356","-73.8648268","40.8447819",NA
"357","-73.8648268","40.8447819",NA
"358","-112.3576567","33.4353394",NA
"359","-87.2169149","30.421309",NA
"360","-73.8648268","40.8447819",NA
"361","-87.2169149","30.421309",NA
"362","-119.8138027","39.5296329",NA
"363","-73.8648268","40.8447819",NA
"364","-73.8648268","40.8447819",NA
"365","-73.8648268","40.8447819",NA
"366","-73.8648268","40.8447819",NA
"367","-73.8648268","40.8447819",NA
"368","-73.8648268","40.8447819",NA
"369","-73.8648268","40.8447819",NA
"370","-73.8648268","40.8447819",NA
"371","-73.8648268","40.8447819",NA
"372","-119.8138027","39.5296329",NA
"373","-73.8648268","40.8447819",NA
"374","-73.8648268","40.8447819",NA
"375","-73.8648268","40.8447819",NA
"376","-119.8138027","39.5296329",NA
"377","-73.8648268","40.8447819",NA
"378","-73.8648268","40.8447819",NA
"379","-86.5861037","34.7303688",NA
"380","-73.8648268","40.8447819",NA
"381","-91.1403196","30.4582829",NA
"382","-71.4547891","42.9956397",NA
"383","-73.8648268","40.8447819",NA
"384","-73.8648268","40.8447819",NA
"385","-74.1562551","40.7464901",NA
"386","-71.4547891","42.9956397",NA
"387","-73.8648268","40.8447819",NA
"388","-73.8648268","40.8447819",NA
"389","-73.8648268","40.8447819",NA
"390","-73.8648268","40.8447819",NA
"391","-91.1403196","30.4582829",NA
"392","-73.8648268","40.8447819",NA
"393","-73.8648268","40.8447819",NA
"394","-121.530234","38.5804609",NA
"395","-78.7811169","35.79154",NA
"396","-86.5861037","34.7303688",NA
"397","-73.8648268","40.8447819",NA
"398","-73.8648268","40.8447819",NA
"399","-73.8648268","40.8447819",NA
"400","-73.8648268","40.8447819",NA
"401","-112.3576567","33.4353394",NA
"402","-87.2169149","30.421309",NA
"403","-73.8648268","40.8447819",NA
"404","-87.2169149","30.421309",NA
"405","-119.8138027","39.5296329",NA
"406","-73.8648268","40.8447819",NA
"407","-73.8648268","40.8447819",NA
"408","-73.8648268","40.8447819",NA
"409","-73.8648268","40.8447819",NA
"410","-73.8648268","40.8447819",NA
"411","-73.8648268","40.8447819",NA
"412","-73.8648268","40.8447819",NA
"413","-73.8648268","40.8447819",NA
"414","-73.8648268","40.8447819",NA
"415","-119.8138027","39.5296329",NA
"416","-73.8648268","40.8447819",NA
"417","-73.8648268","40.8447819",NA
"418","-73.8648268","40.8447819",NA
"419","-119.8138027","39.5296329",NA
"420","-73.8648268","40.8447819",NA
"421","-73.8648268","40.8447819",NA
"422","-86.5861037","34.7303688",NA
"423","-73.8648268","40.8447819",NA
"424","-91.1403196","30.4582829",NA
"425","-71.4547891","42.9956397",NA
"426","-73.8648268","40.8447819",NA
"427","-73.8648268","40.8447819",NA
"428","-74.1562551","40.7464901",NA
"429","-71.4547891","42.9956397",NA
"430","-73.8648268","40.8447819",NA
"431","-73.8648268","40.8447819",NA
"432","-73.8648268","40.8447819",NA
"433","-73.8648268","40.8447819",NA
"434","-91.1403196","30.4582829",NA
"435","-73.8648268","40.8447819",NA
"436","-73.8648268","40.8447819",NA
"437","-121.530234","38.5804609",NA
"438","-78.7811169","35.79154",NA
"439","-86.5861037","34.7303688",NA
"440","-73.8648268","40.8447819",NA
"441","-73.8648268","40.8447819",NA
"442","-73.8648268","40.8447819",NA
"443","-73.8648268","40.8447819",NA
"444","-112.3576567","33.4353394",NA
"445","-87.2169149","30.421309",NA
"446","-73.8648268","40.8447819",NA
"447","-87.2169149","30.421309",NA
"448","-119.8138027","39.5296329",NA
"449","-73.8648268","40.8447819",NA
"450","-73.8648268","40.8447819",NA
"451","-73.8648268","40.8447819",NA
"452","-73.8648268","40.8447819",NA
"453","-73.8648268","40.8447819",NA
"454","-73.8648268","40.8447819",NA
"455","-73.8648268","40.8447819",NA
"456","-73.8648268","40.8447819",NA
"457","-73.8648268","40.8447819",NA
"458","-119.8138027","39.5296329",NA
"459","-73.8648268","40.8447819",NA
"460","-73.8648268","40.8447819",NA
"461","-73.8648268","40.8447819",NA
"462","-119.8138027","39.5296329",NA
"463","-73.8648268","40.8447819",NA
"464","-73.8648268","40.8447819",NA
"465","-86.5861037","34.7303688",NA
"466","-73.8648268","40.8447819",NA
"467","-91.1403196","30.4582829",NA
"468","-71.4547891","42.9956397",NA
"469","-73.8648268","40.8447819",NA
"470","-73.8648268","40.8447819",NA
"471","-74.1562551","40.7464901",NA
"472","-71.4547891","42.9956397",NA
"473","-73.8648268","40.8447819",NA
"474","-73.8648268","40.8447819",NA
"475","-73.8648268","40.8447819",NA
"476","-73.8648268","40.8447819",NA
"477","-91.1403196","30.4582829",NA
"478","-73.8648268","40.8447819",NA
"479","-73.8648268","40.8447819",NA
"480","-121.530234","38.5804609",NA
"481","-78.7811169","35.79154",NA
"482","-86.5861037","34.7303688",NA
"483","-73.8648268","40.8447819",NA
"484","-73.8648268","40.8447819",NA
"485","-73.8648268","40.8447819",NA
"486","-73.8648268","40.8447819",NA
"487","-112.3576567","33.4353394",NA
"488","-87.2169149","30.421309",NA
"489","-73.8648268","40.8447819",NA
"490","-87.2169149","30.421309",NA
"491","-119.8138027","39.5296329",NA
"492","-73.8648268","40.8447819",NA
"493","-73.8648268","40.8447819",NA
"494","-73.8648268","40.8447819",NA
"495","-73.8648268","40.8447819",NA
"496","-73.8648268","40.8447819",NA
"497","-73.8648268","40.8447819",NA
"498","-73.8648268","40.8447819",NA
"499","-73.8648268","40.8447819",NA
"500","-73.8648268","40.8447819",NA
"501","-119.8138027","39.5296329",NA
"502","-73.8648268","40.8447819",NA
"503","-73.8648268","40.8447819",NA
"504","-73.8648268","40.8447819",NA
"505","-119.8138027","39.5296329",NA
"506","-73.8648268","40.8447819",NA
"507","-73.8648268","40.8447819",NA
"508","-86.5861037","34.7303688",NA
"509","-73.8648268","40.8447819",NA
"510","-91.1403196","30.4582829",NA
"511","-71.4547891","42.9956397",NA
"512","-73.8648268","40.8447819",NA
"513","-73.8648268","40.8447819",NA
"514","-74.1562551","40.7464901",NA
"515","-71.4547891","42.9956397",NA
"516","-73.8648268","40.8447819",NA
"517","-73.8648268","40.8447819",NA
"518","-73.8648268","40.8447819",NA
"519","-73.8648268","40.8447819",NA
"520","-91.1403196","30.4582829",NA
"521","-73.8648268","40.8447819",NA
"522","-73.8648268","40.8447819",NA
"523","-121.530234","38.5804609",NA
"524","-78.7811169","35.79154",NA
"525","-86.5861037","34.7303688",NA
"526","-122.0310733","37.9779776",NA
"527","-80.1494901","26.0112014",NA
"528","-82.5187629","37.4792672",NA
"529","-117.2897652","34.1083449",NA
"530","-117.1483648","33.4936391",NA
"531","-89.5889864","40.6936488",NA
"532","-87.2169149","30.421309",NA
"533","-91.1403196","30.4582829",NA
"534","-94.8835754","39.059726",NA
"535","-83.9508068","43.4194699",NA
"536","-92.1004852","46.7866719",NA
"537","-85.1393513","41.079273",NA
"538","-75.4901833","40.6084305",NA
"539","-75.3076883","39.957902",NA
"540","-77.026088","38.9906657",NA
"541","-112.3576567","33.4353394",NA
"542","-87.2169149","30.421309",NA
"543","-73.8648268","40.8447819",NA
"544","-87.2169149","30.421309",NA
"545","-119.8138027","39.5296329",NA
"546","-73.8648268","40.8447819",NA
"547","-73.8648268","40.8447819",NA
"548","-73.8648268","40.8447819",NA
"549","-73.8648268","40.8447819",NA
"550","-73.8648268","40.8447819",NA
"551","-73.8648268","40.8447819",NA
"552","-73.8648268","40.8447819",NA
"553","-73.8648268","40.8447819",NA
"554","-73.8648268","40.8447819",NA
"555","-119.8138027","39.5296329",NA
"556","-73.8648268","40.8447819",NA
"557","-73.8648268","40.8447819",NA
"558","-73.8648268","40.8447819",NA
"559","-119.8138027","39.5296329",NA
"560","-73.8648268","40.8447819",NA
"561","-73.8648268","40.8447819",NA
"562","-86.5861037","34.7303688",NA
"563","-73.8648268","40.8447819",NA
"564","-91.1403196","30.4582829",NA
"565","-71.4547891","42.9956397",NA
"566","-73.8648268","40.8447819",NA
"567","-73.8648268","40.8447819",NA
"568","-74.1562551","40.7464901",NA
"569","-71.4547891","42.9956397",NA
"570","-73.8648268","40.8447819",NA
"571","-73.8648268","40.8447819",NA
"572","-73.8648268","40.8447819",NA
"573","-73.8648268","40.8447819",NA
"574","-91.1403196","30.4582829",NA
"575","-73.8648268","40.8447819",NA
"576","-73.8648268","40.8447819",NA
"577","-121.530234","38.5804609",NA
"578","-78.7811169","35.79154",NA
"579","-86.5861037","34.7303688",NA
"580","-97.3307658","32.7554883",NA
"581","-73.8648268","40.8447819",NA
"582","-73.8648268","40.8447819",NA
"583","-73.8648268","40.8447819",NA
"584","-79.7625625","34.1954331",NA
"585","-122.0310733","37.9779776",NA
"586","-80.1494901","26.0112014",NA
"587","-82.5187629","37.4792672",NA
"588","-117.2897652","34.1083449",NA
"589","-117.1483648","33.4936391",NA
"590","-89.5889864","40.6936488",NA
"591","-87.2169149","30.421309",NA
"592","-91.1403196","30.4582829",NA
"593","-94.8835754","39.059726",NA
"594","-83.9508068","43.4194699",NA
"595","-92.1004852","46.7866719",NA
"596","-75.4901833","40.6084305",NA
"597","-75.3076883","39.957902",NA
"598","-77.026088","38.9906657",NA
"599","-85.1393513","41.079273",NA
"600","-112.3576567","33.4353394",NA
"601","-87.2169149","30.421309",NA
"602","-73.8648268","40.8447819",NA
"603","-87.2169149","30.421309",NA
"604","-119.8138027","39.5296329",NA
"605","-73.8648268","40.8447819",NA
"606","-73.8648268","40.8447819",NA
"607","-73.8648268","40.8447819",NA
"608","-73.8648268","40.8447819",NA
"609","-73.8648268","40.8447819",NA
"610","-73.8648268","40.8447819",NA
"611","-73.8648268","40.8447819",NA
"612","-73.8648268","40.8447819",NA
"613","-73.8648268","40.8447819",NA
"614","-119.8138027","39.5296329",NA
"615","-73.8648268","40.8447819",NA
"616","-73.8648268","40.8447819",NA
"617","-73.8648268","40.8447819",NA
"618","-119.8138027","39.5296329",NA
"619","-73.8648268","40.8447819",NA
"620","-73.8648268","40.8447819",NA
"621","-86.5861037","34.7303688",NA
"622","-73.8648268","40.8447819",NA
"623","-91.1403196","30.4582829",NA
"624","-71.4547891","42.9956397",NA
"625","-73.8648268","40.8447819",NA
"626","-73.8648268","40.8447819",NA
"627","-74.1562551","40.7464901",NA
"628","-71.4547891","42.9956397",NA
"629","-73.8648268","40.8447819",NA
"630","-73.8648268","40.8447819",NA
"631","-73.8648268","40.8447819",NA
"632","-73.8648268","40.8447819",NA
"633","-91.1403196","30.4582829",NA
"634","-73.8648268","40.8447819",NA
"635","-73.8648268","40.8447819",NA
"636","-121.530234","38.5804609",NA
"637","-78.7811169","35.79154",NA
"638","-86.5861037","34.7303688",NA
"639","-97.3307658","32.7554883",NA
"640","-73.8648268","40.8447819",NA
"641","-73.8648268","40.8447819",NA
"642","-73.8648268","40.8447819",NA
"643","-79.7625625","34.1954331",NA
"644","-122.0310733","37.9779776",NA
"645","-80.1494901","26.0112014",NA
"646","-82.5187629","37.4792672",NA
"647","-117.2897652","34.1083449",NA
"648","-117.1483648","33.4936391",NA
"649","-89.5889864","40.6936488",NA
"650","-87.2169149","30.421309",NA
"651","-91.1403196","30.4582829",NA
"652","-94.8835754","39.059726",NA
"653","-83.9508068","43.4194699",NA
"654","-92.1004852","46.7866719",NA
"655","-75.4901833","40.6084305",NA
"656","-75.3076883","39.957902",NA
"657","-77.026088","38.9906657",NA
"658","-85.1393513","41.079273",NA
"659","-112.3576567","33.4353394",NA
"660","-87.2169149","30.421309",NA
"661","-73.8648268","40.8447819",NA
"662","-87.2169149","30.421309",NA
"663","-119.8138027","39.5296329",NA
"664","-73.8648268","40.8447819",NA
"665","-73.8648268","40.8447819",NA
"666","-73.8648268","40.8447819",NA
"667","-73.8648268","40.8447819",NA
"668","-73.8648268","40.8447819",NA
"669","-73.8648268","40.8447819",NA
"670","-73.8648268","40.8447819",NA
"671","-73.8648268","40.8447819",NA
"672","-73.8648268","40.8447819",NA
"673","-119.8138027","39.5296329",NA
"674","-73.8648268","40.8447819",NA
"675","-73.8648268","40.8447819",NA
"676","-73.8648268","40.8447819",NA
"677","-119.8138027","39.5296329",NA
"678","-73.8648268","40.8447819",NA
"679","-73.8648268","40.8447819",NA
"680","-86.5861037","34.7303688",NA
"681","-73.8648268","40.8447819",NA
"682","-91.1403196","30.4582829",NA
"683","-71.4547891","42.9956397",NA
"684","-73.8648268","40.8447819",NA
"685","-73.8648268","40.8447819",NA
"686","-74.1562551","40.7464901",NA
"687","-71.4547891","42.9956397",NA
"688","-73.8648268","40.8447819",NA
"689","-73.8648268","40.8447819",NA
"690","-73.8648268","40.8447819",NA
"691","-73.8648268","40.8447819",NA
"692","-91.1403196","30.4582829",NA
"693","-73.8648268","40.8447819",NA
"694","-73.8648268","40.8447819",NA
"695","-121.530234","38.5804609",NA
"696","-78.7811169","35.79154",NA
"697","-86.5861037","34.7303688",NA
"698","-97.3307658","32.7554883",NA
"699","-73.8648268","40.8447819",NA
"700","-73.8648268","40.8447819",NA
"701","-73.8648268","40.8447819",NA
"702","-79.7625625","34.1954331",NA
"703","-122.0310733","37.9779776",NA
"704","-80.1494901","26.0112014",NA
"705","-82.5187629","37.4792672",NA
"706","-117.2897652","34.1083449",NA
"707","-117.1483648","33.4936391",NA
"708","-89.5889864","40.6936488",NA
"709","-87.2169149","30.421309",NA
"710","-91.1403196","30.4582829",NA
"711","-94.8835754","39.059726",NA
"712","-83.9508068","43.4194699",NA
"713","-85.1393513","41.079273",NA
"714","-92.1004852","46.7866719",NA
"715","-75.4901833","40.6084305",NA
"716","-75.3076883","39.957902",NA
"717","-77.026088","38.9906657",NA
"718","-112.3576567","33.4353394",NA
"719","-87.2169149","30.421309",NA
"720","-73.8648268","40.8447819",NA
"721","-87.2169149","30.421309",NA
"722","-119.8138027","39.5296329",NA
"723","-73.8648268","40.8447819",NA
"724","-73.8648268","40.8447819",NA
"725","-73.8648268","40.8447819",NA
"726","-73.8648268","40.8447819",NA
"727","-73.8648268","40.8447819",NA
"728","-73.8648268","40.8447819",NA
"729","-73.8648268","40.8447819",NA
"730","-73.8648268","40.8447819",NA
"731","-73.8648268","40.8447819",NA
"732","-119.8138027","39.5296329",NA
"733","-73.8648268","40.8447819",NA
"734","-73.8648268","40.8447819",NA
"735","-73.8648268","40.8447819",NA
"736","-119.8138027","39.5296329",NA
"737","-73.8648268","40.8447819",NA
"738","-73.8648268","40.8447819",NA
"739","-86.5861037","34.7303688",NA
"740","-73.8648268","40.8447819",NA
"741","-91.1403196","30.4582829",NA
"742","-71.4547891","42.9956397",NA
"743","-73.8648268","40.8447819",NA
"744","-73.8648268","40.8447819",NA
"745","-74.1562551","40.7464901",NA
"746","-71.4547891","42.9956397",NA
"747","-73.8648268","40.8447819",NA
"748","-73.8648268","40.8447819",NA
"749","-73.8648268","40.8447819",NA
"750","-73.8648268","40.8447819",NA
"751","-91.1403196","30.4582829",NA
"752","-73.8648268","40.8447819",NA
"753","-73.8648268","40.8447819",NA
"754","-121.530234","38.5804609",NA
"755","-78.7811169","35.79154",NA
"756","-86.5861037","34.7303688",NA
"757","-97.3307658","32.7554883",NA
"758","-73.8648268","40.8447819",NA
"759","-73.8648268","40.8447819",NA
"760","-73.8648268","40.8447819",NA
"761","-79.7625625","34.1954331",NA
"762","-122.0310733","37.9779776",NA
"763","-80.1494901","26.0112014",NA
"764","-82.5187629","37.4792672",NA
"765","-117.2897652","34.1083449",NA
"766","-117.1483648","33.4936391",NA
"767","-89.5889864","40.6936488",NA
"768","-87.2169149","30.421309",NA
"769","-91.1403196","30.4582829",NA
"770","-94.8835754","39.059726",NA
"771","-83.9508068","43.4194699",NA
"772","-92.1004852","46.7866719",NA
"773","-75.4901833","40.6084305",NA
"774","-85.1393513","41.079273",NA
"775","-75.3076883","39.957902",NA
"776","-77.026088","38.9906657",NA
"777","-112.3576567","33.4353394",NA
"778","-87.2169149","30.421309",NA
"779","-73.8648268","40.8447819",NA
"780","-87.2169149","30.421309",NA
"781","-119.8138027","39.5296329",NA
"782","-73.8648268","40.8447819",NA
"783","-73.8648268","40.8447819",NA
"784","-73.8648268","40.8447819",NA
"785","-73.8648268","40.8447819",NA
"786","-73.8648268","40.8447819",NA
"787","-73.8648268","40.8447819",NA
"788","-73.8648268","40.8447819",NA
"789","-73.8648268","40.8447819",NA
"790","-73.8648268","40.8447819",NA
"791","-119.8138027","39.5296329",NA
"792","-73.8648268","40.8447819",NA
"793","-73.8648268","40.8447819",NA
"794","-73.8648268","40.8447819",NA
"795","-119.8138027","39.5296329",NA
"796","-73.8648268","40.8447819",NA
"797","-73.8648268","40.8447819",NA
"798","-86.5861037","34.7303688",NA
"799","-73.8648268","40.8447819",NA
"800","-91.1403196","30.4582829",NA
"801","-71.4547891","42.9956397",NA
"802","-73.8648268","40.8447819",NA
"803","-73.8648268","40.8447819",NA
"804","-74.1562551","40.7464901",NA
"805","-71.4547891","42.9956397",NA
"806","-73.8648268","40.8447819",NA
"807","-73.8648268","40.8447819",NA
"808","-73.8648268","40.8447819",NA
"809","-73.8648268","40.8447819",NA
"810","-91.1403196","30.4582829",NA
"811","-73.8648268","40.8447819",NA
"812","-73.8648268","40.8447819",NA
"813","-121.530234","38.5804609",NA
"814","-78.7811169","35.79154",NA
"815","-86.5861037","34.7303688",NA
"816","-97.3307658","32.7554883",NA
"817","-73.8648268","40.8447819",NA
"818","-73.8648268","40.8447819",NA
"819","-73.8648268","40.8447819",NA
"820","-79.7625625","34.1954331",NA
"821","-122.0310733","37.9779776",NA
"822","-80.1494901","26.0112014",NA
"823","-82.5187629","37.4792672",NA
"824","-117.2897652","34.1083449",NA
"825","-117.1483648","33.4936391",NA
"826","-89.5889864","40.6936488",NA
"827","-87.2169149","30.421309",NA
"828","-91.1403196","30.4582829",NA
"829","-94.8835754","39.059726",NA
"830","-83.9508068","43.4194699",NA
"831","-92.1004852","46.7866719",NA
"832","-75.4901833","40.6084305",NA
"833","-75.3076883","39.957902",NA
"834","-77.026088","38.9906657",NA
"835","-85.1393513","41.079273",NA
"836","-112.3576567","33.4353394",NA
"837","-87.2169149","30.421309",NA
"838","-73.8648268","40.8447819",NA
"839","-87.2169149","30.421309",NA
"840","-119.8138027","39.5296329",NA
"841","-73.8648268","40.8447819",NA
"842","-73.8648268","40.8447819",NA
"843","-73.8648268","40.8447819",NA
"844","-73.8648268","40.8447819",NA
"845","-73.8648268","40.8447819",NA
"846","-73.8648268","40.8447819",NA
"847","-73.8648268","40.8447819",NA
"848","-73.8648268","40.8447819",NA
"849","-73.8648268","40.8447819",NA
"850","-119.8138027","39.5296329",NA
"851","-73.8648268","40.8447819",NA
"852","-73.8648268","40.8447819",NA
"853","-73.8648268","40.8447819",NA
"854","-119.8138027","39.5296329",NA
"855","-73.8648268","40.8447819",NA
"856","-73.8648268","40.8447819",NA
"857","-86.5861037","34.7303688",NA
"858","-73.8648268","40.8447819",NA
"859","-91.1403196","30.4582829",NA
"860","-71.4547891","42.9956397",NA
"861","-73.8648268","40.8447819",NA
"862","-73.8648268","40.8447819",NA
"863","-74.1562551","40.7464901",NA
"864","-71.4547891","42.9956397",NA
"865","-73.8648268","40.8447819",NA
"866","-73.8648268","40.8447819",NA
"867","-73.8648268","40.8447819",NA
"868","-73.8648268","40.8447819",NA
"869","-91.1403196","30.4582829",NA
"870","-73.8648268","40.8447819",NA
"871","-73.8648268","40.8447819",NA
"872","-121.530234","38.5804609",NA
"873","-78.7811169","35.79154",NA
"874","-86.5861037","34.7303688",NA
"875","-97.3307658","32.7554883",NA
"876","-73.8648268","40.8447819",NA
"877","-73.8648268","40.8447819",NA
"878","-73.8648268","40.8447819",NA
"879","-79.7625625","34.1954331",NA
"880","-122.0310733","37.9779776",NA
"881","-80.1494901","26.0112014",NA
"882","-82.5187629","37.4792672",NA
"883","-117.2897652","34.1083449",NA
"884","-117.1483648","33.4936391",NA
"885","-89.5889864","40.6936488",NA
"886","-87.2169149","30.421309",NA
"887","-91.1403196","30.4582829",NA
"888","-94.8835754","39.059726",NA
"889","-83.9508068","43.4194699",NA
"890","-92.1004852","46.7866719",NA
"891","-75.4901833","40.6084305",NA
"892","-75.3076883","39.957902",NA
"893","-77.026088","38.9906657",NA
"894","-85.1393513","41.079273",NA
"895","-112.3576567","33.4353394",NA
"896","-73.8648268","40.8447819",NA
"897","-87.2169149","30.421309",NA
"898","-87.2169149","30.421309",NA
"899","-119.8138027","39.5296329",NA
"900","-73.8648268","40.8447819",NA
"901","-73.8648268","40.8447819",NA
"902","-73.8648268","40.8447819",NA
"903","-73.8648268","40.8447819",NA
"904","-73.8648268","40.8447819",NA
"905","-73.8648268","40.8447819",NA
"906","-73.8648268","40.8447819",NA
"907","-73.8648268","40.8447819",NA
"908","-73.8648268","40.8447819",NA
"909","-119.8138027","39.5296329",NA
"910","-73.8648268","40.8447819",NA
"911","-73.8648268","40.8447819",NA
"912","-73.8648268","40.8447819",NA
"913","-119.8138027","39.5296329",NA
"914","-73.8648268","40.8447819",NA
"915","-73.8648268","40.8447819",NA
"916","-86.5861037","34.7303688",NA
"917","-73.8648268","40.8447819",NA
"918","-91.1403196","30.4582829",NA
"919","-71.4547891","42.9956397",NA
"920","-73.8648268","40.8447819",NA
"921","-73.8648268","40.8447819",NA
"922","-74.1562551","40.7464901",NA
"923","-71.4547891","42.9956397",NA
"924","-73.8648268","40.8447819",NA
"925","-73.8648268","40.8447819",NA
"926","-73.8648268","40.8447819",NA
"927","-73.8648268","40.8447819",NA
"928","-91.1403196","30.4582829",NA
"929","-73.8648268","40.8447819",NA
"930","-73.8648268","40.8447819",NA
"931","-121.530234","38.5804609",NA
"932","-78.7811169","35.79154",NA
"933","-86.5861037","34.7303688",NA
"934","-97.3307658","32.7554883",NA
"935","-73.8648268","40.8447819",NA
"936","-73.8648268","40.8447819",NA
"937","-73.8648268","40.8447819",NA
"938","-79.7625625","34.1954331",NA
"939","-112.3576567","33.4353394",NA
"940","-87.2169149","30.421309",NA
"941","-73.8648268","40.8447819",NA
"942","-87.2169149","30.421309",NA
"943","-119.8138027","39.5296329",NA
"944","-73.8648268","40.8447819",NA
"945","-73.8648268","40.8447819",NA
"946","-73.8648268","40.8447819",NA
"947","-73.8648268","40.8447819",NA
"948","-73.8648268","40.8447819",NA
"949","-73.8648268","40.8447819",NA
"950","-73.8648268","40.8447819",NA
"951","-73.8648268","40.8447819",NA
"952","-73.8648268","40.8447819",NA
"953","-119.8138027","39.5296329",NA
"954","-73.8648268","40.8447819",NA
"955","-73.8648268","40.8447819",NA
"956","-73.8648268","40.8447819",NA
"957","-119.8138027","39.5296329",NA
"958","-73.8648268","40.8447819",NA
"959","-73.8648268","40.8447819",NA
"960","-86.5861037","34.7303688",NA
"961","-73.8648268","40.8447819",NA
"962","-91.1403196","30.4582829",NA
"963","-71.4547891","42.9956397",NA
"964","-73.8648268","40.8447819",NA
"965","-73.8648268","40.8447819",NA
"966","-74.1562551","40.7464901",NA
"967","-71.4547891","42.9956397",NA
"968","-73.8648268","40.8447819",NA
"969","-73.8648268","40.8447819",NA
"970","-73.8648268","40.8447819",NA
"971","-73.8648268","40.8447819",NA
"972","-91.1403196","30.4582829",NA
"973","-73.8648268","40.8447819",NA
"974","-73.8648268","40.8447819",NA
"975","-121.530234","38.5804609",NA
"976","-78.7811169","35.79154",NA
"977","-86.5861037","34.7303688",NA
"978","-97.3307658","32.7554883",NA
"979","-73.8648268","40.8447819",NA
"980","-73.8648268","40.8447819",NA
"981","-73.8648268","40.8447819",NA
"982","-79.7625625","34.1954331",NA
"983","-112.3576567","33.4353394",NA
"984","-87.2169149","30.421309",NA
"985","-73.8648268","40.8447819",NA
"986","-87.2169149","30.421309",NA
"987","-119.8138027","39.5296329",NA
"988","-73.8648268","40.8447819",NA
"989","-73.8648268","40.8447819",NA
"990","-73.8648268","40.8447819",NA
"991","-73.8648268","40.8447819",NA
"992","-73.8648268","40.8447819",NA
"993","-73.8648268","40.8447819",NA
"994","-73.8648268","40.8447819",NA
"995","-73.8648268","40.8447819",NA
"996","-73.8648268","40.8447819",NA
"997","-119.8138027","39.5296329",NA
"998","-73.8648268","40.8447819",NA
"999","-73.8648268","40.8447819",NA
"1000","-73.8648268","40.8447819",NA
"1001","-119.8138027","39.5296329",NA
"1002","-73.8648268","40.8447819",NA
"1003","-73.8648268","40.8447819",NA
"1004","-86.5861037","34.7303688",NA
"1005","-73.8648268","40.8447819",NA
"1006","-91.1403196","30.4582829",NA
"1007","-71.4547891","42.9956397",NA
"1008","-73.8648268","40.8447819",NA
"1009","-73.8648268","40.8447819",NA
"1010","-74.1562551","40.7464901",NA
"1011","-71.4547891","42.9956397",NA
"1012","-73.8648268","40.8447819",NA
"1013","-73.8648268","40.8447819",NA
"1014","-73.8648268","40.8447819",NA
"1015","-73.8648268","40.8447819",NA
"1016","-91.1403196","30.4582829",NA
"1017","-73.8648268","40.8447819",NA
"1018","-73.8648268","40.8447819",NA
"1019","-121.530234","38.5804609",NA
"1020","-78.7811169","35.79154",NA
"1021","-86.5861037","34.7303688",NA
"1022","-97.3307658","32.7554883",NA
"1023","-73.8648268","40.8447819",NA
"1024","-73.8648268","40.8447819",NA
"1025","-73.8648268","40.8447819",NA
"1026","-79.7625625","34.1954331",NA
"1027","-112.3576567","33.4353394",NA
"1028","-73.8648268","40.8447819",NA
"1029","-87.2169149","30.421309",NA
"1030","-87.2169149","30.421309",NA
"1031","-119.8138027","39.5296329",NA
"1032","-73.8648268","40.8447819",NA
"1033","-73.8648268","40.8447819",NA
"1034","-73.8648268","40.8447819",NA
"1035","-73.8648268","40.8447819",NA
"1036","-73.8648268","40.8447819",NA
"1037","-73.8648268","40.8447819",NA
"1038","-73.8648268","40.8447819",NA
"1039","-73.8648268","40.8447819",NA
"1040","-73.8648268","40.8447819",NA
"1041","-119.8138027","39.5296329",NA
"1042","-73.8648268","40.8447819",NA
"1043","-73.8648268","40.8447819",NA
"1044","-73.8648268","40.8447819",NA
"1045","-119.8138027","39.5296329",NA
"1046","-73.8648268","40.8447819",NA
"1047","-73.8648268","40.8447819",NA
"1048","-86.5861037","34.7303688",NA
"1049","-73.8648268","40.8447819",NA
"1050","-91.1403196","30.4582829",NA
"1051","-71.4547891","42.9956397",NA
"1052","-73.8648268","40.8447819",NA
"1053","-73.8648268","40.8447819",NA
"1054","-74.1562551","40.7464901",NA
"1055","-71.4547891","42.9956397",NA
"1056","-73.8648268","40.8447819",NA
"1057","-73.8648268","40.8447819",NA
"1058","-73.8648268","40.8447819",NA
"1059","-73.8648268","40.8447819",NA
"1060","-91.1403196","30.4582829",NA
"1061","-73.8648268","40.8447819",NA
"1062","-73.8648268","40.8447819",NA
"1063","-121.530234","38.5804609",NA
"1064","-78.7811169","35.79154",NA
"1065","-86.5861037","34.7303688",NA
"1066","-97.3307658","32.7554883",NA
"1067","-73.8648268","40.8447819",NA
"1068","-73.8648268","40.8447819",NA
"1069","-73.8648268","40.8447819",NA
"1070","-79.7625625","34.1954331",NA
"1071","-112.3576567","33.4353394",NA
"1072","-87.2169149","30.421309",NA
"1073","-73.8648268","40.8447819",NA
"1074","-87.2169149","30.421309",NA
"1075","-119.8138027","39.5296329",NA
"1076","-73.8648268","40.8447819",NA
"1077","-73.8648268","40.8447819",NA
"1078","-73.8648268","40.8447819",NA
"1079","-73.8648268","40.8447819",NA
"1080","-73.8648268","40.8447819",NA
"1081","-73.8648268","40.8447819",NA
"1082","-73.8648268","40.8447819",NA
"1083","-73.8648268","40.8447819",NA
"1084","-73.8648268","40.8447819",NA
"1085","-119.8138027","39.5296329",NA
"1086","-73.8648268","40.8447819",NA
"1087","-73.8648268","40.8447819",NA
"1088","-73.8648268","40.8447819",NA
"1089","-119.8138027","39.5296329",NA
"1090","-73.8648268","40.8447819",NA
"1091","-73.8648268","40.8447819",NA
"1092","-86.5861037","34.7303688",NA
"1093","-73.8648268","40.8447819",NA
"1094","-91.1403196","30.4582829",NA
"1095","-71.4547891","42.9956397",NA
"1096","-73.8648268","40.8447819",NA
"1097","-73.8648268","40.8447819",NA
"1098","-74.1562551","40.7464901",NA
"1099","-71.4547891","42.9956397",NA
"1100","-73.8648268","40.8447819",NA
"1101","-73.8648268","40.8447819",NA
"1102","-73.8648268","40.8447819",NA
"1103","-73.8648268","40.8447819",NA
"1104","-91.1403196","30.4582829",NA
"1105","-73.8648268","40.8447819",NA
"1106","-73.8648268","40.8447819",NA
"1107","-121.530234","38.5804609",NA
"1108","-78.7811169","35.79154",NA
"1109","-86.5861037","34.7303688",NA
"1110","-97.3307658","32.7554883",NA
"1111","-73.8648268","40.8447819",NA
"1112","-73.8648268","40.8447819",NA
"1113","-73.8648268","40.8447819",NA
"1114","-79.7625625","34.1954331",NA
"1115","-112.3576567","33.4353394",NA
"1116","-87.2169149","30.421309",NA
"1117","-73.8648268","40.8447819",NA
"1118","-87.2169149","30.421309",NA
"1119","-119.8138027","39.5296329",NA
"1120","-73.8648268","40.8447819",NA
"1121","-73.8648268","40.8447819",NA
"1122","-73.8648268","40.8447819",NA
"1123","-73.8648268","40.8447819",NA
"1124","-73.8648268","40.8447819",NA
"1125","-73.8648268","40.8447819",NA
"1126","-73.8648268","40.8447819",NA
"1127","-73.8648268","40.8447819",NA
"1128","-73.8648268","40.8447819",NA
"1129","-119.8138027","39.5296329",NA
"1130","-73.8648268","40.8447819",NA
"1131","-73.8648268","40.8447819",NA
"1132","-73.8648268","40.8447819",NA
"1133","-119.8138027","39.5296329",NA
"1134","-73.8648268","40.8447819",NA
"1135","-73.8648268","40.8447819",NA
"1136","-86.5861037","34.7303688",NA
"1137","-73.8648268","40.8447819",NA
"1138","-91.1403196","30.4582829",NA
"1139","-71.4547891","42.9956397",NA
"1140","-73.8648268","40.8447819",NA
"1141","-73.8648268","40.8447819",NA
"1142","-74.1562551","40.7464901",NA
"1143","-71.4547891","42.9956397",NA
"1144","-73.8648268","40.8447819",NA
"1145","-73.8648268","40.8447819",NA
"1146","-73.8648268","40.8447819",NA
"1147","-73.8648268","40.8447819",NA
"1148","-91.1403196","30.4582829",NA
"1149","-73.8648268","40.8447819",NA
"1150","-73.8648268","40.8447819",NA
"1151","-121.530234","38.5804609",NA
"1152","-78.7811169","35.79154",NA
"1153","-86.5861037","34.7303688",NA
"1154","-97.3307658","32.7554883",NA
"1155","-73.8648268","40.8447819",NA
"1156","-73.8648268","40.8447819",NA
"1157","-73.8648268","40.8447819",NA
"1158","-79.7625625","34.1954331",NA
"1159","-112.3576567","33.4353394",NA
"1160","-87.2169149","30.421309",NA
"1161","-73.8648268","40.8447819",NA
"1162","-87.2169149","30.421309",NA
"1163","-119.8138027","39.5296329",NA
"1164","-73.8648268","40.8447819",NA
"1165","-73.8648268","40.8447819",NA
"1166","-73.8648268","40.8447819",NA
"1167","-73.8648268","40.8447819",NA
"1168","-73.8648268","40.8447819",NA
"1169","-73.8648268","40.8447819",NA
"1170","-73.8648268","40.8447819",NA
"1171","-73.8648268","40.8447819",NA
"1172","-73.8648268","40.8447819",NA
"1173","-119.8138027","39.5296329",NA
"1174","-73.8648268","40.8447819",NA
"1175","-73.8648268","40.8447819",NA
"1176","-73.8648268","40.8447819",NA
"1177","-119.8138027","39.5296329",NA
"1178","-73.8648268","40.8447819",NA
"1179","-73.8648268","40.8447819",NA
"1180","-86.5861037","34.7303688",NA
"1181","-73.8648268","40.8447819",NA
"1182","-91.1403196","30.4582829",NA
"1183","-71.4547891","42.9956397",NA
"1184","-73.8648268","40.8447819",NA
"1185","-73.8648268","40.8447819",NA
"1186","-74.1562551","40.7464901",NA
"1187","-71.4547891","42.9956397",NA
"1188","-73.8648268","40.8447819",NA
"1189","-73.8648268","40.8447819",NA
"1190","-73.8648268","40.8447819",NA
"1191","-73.8648268","40.8447819",NA
"1192","-91.1403196","30.4582829",NA
"1193","-73.8648268","40.8447819",NA
"1194","-73.8648268","40.8447819",NA
"1195","-121.530234","38.5804609",NA
"1196","-78.7811169","35.79154",NA
"1197","-86.5861037","34.7303688",NA
"1198","-97.3307658","32.7554883",NA
"1199","-73.8648268","40.8447819",NA
"1200","-73.8648268","40.8447819",NA
"1201","-73.8648268","40.8447819",NA
"1202","-79.7625625","34.1954331",NA
"1203","-73.8648268","40.8447819",NA
"1204","-112.3576567","33.4353394",NA
"1205","-73.8648268","40.8447819",NA
"1206","-87.2169149","30.421309",NA
"1207","-73.8648268","40.8447819",NA
"1208","-119.8138027","39.5296329",NA
"1209","-73.8648268","40.8447819",NA
"1210","-73.8648268","40.8447819",NA
"1211","-73.8648268","40.8447819",NA
"1212","-73.8648268","40.8447819",NA
"1213","-73.8648268","40.8447819",NA
"1214","-73.8648268","40.8447819",NA
"1215","-73.8648268","40.8447819",NA
"1216","-73.8648268","40.8447819",NA
"1217","-119.8138027","39.5296329",NA
"1218","-73.8648268","40.8447819",NA
"1219","-73.8648268","40.8447819",NA
"1220","-73.8648268","40.8447819",NA
"1221","-119.8138027","39.5296329",NA
"1222","-73.8648268","40.8447819",NA
"1223","-73.8648268","40.8447819",NA
"1224","-86.5861037","34.7303688",NA
"1225","-73.8648268","40.8447819",NA
"1226","-71.4547891","42.9956397",NA
"1227","-73.8648268","40.8447819",NA
"1228","-73.8648268","40.8447819",NA
"1229","-71.4547891","42.9956397",NA
"1230","-73.8648268","40.8447819",NA
"1231","-73.8648268","40.8447819",NA
"1232","-73.8648268","40.8447819",NA
"1233","-73.8648268","40.8447819",NA
"1234","-73.8648268","40.8447819",NA
"1235","-73.8648268","40.8447819",NA
"1236","-91.1403196","30.4582829",NA
"1237","-73.8648268","40.8447819",NA
"1238","-73.8648268","40.8447819",NA
"1239","-121.530234","38.5804609",NA
"1240","-78.7811169","35.79154",NA
"1241","-86.5861037","34.7303688",NA
"1242","-73.8648268","40.8447819",NA
"1243","-97.3307658","32.7554883",NA
"1244","-73.8648268","40.8447819",NA
"1245","-73.8648268","40.8447819",NA
"1246","-73.8648268","40.8447819",NA
"1247","-79.7625625","34.1954331",NA
"1248","-73.8648268","40.8447819",NA
"1249","-112.3576567","33.4353394",NA
"1250","-73.8648268","40.8447819",NA
"1251","-87.2169149","30.421309",NA
"1252","-73.8648268","40.8447819",NA
"1253","-119.8138027","39.5296329",NA
"1254","-73.8648268","40.8447819",NA
"1255","-73.8648268","40.8447819",NA
"1256","-73.8648268","40.8447819",NA
"1257","-73.8648268","40.8447819",NA
"1258","-73.8648268","40.8447819",NA
"1259","-73.8648268","40.8447819",NA
"1260","-73.8648268","40.8447819",NA
"1261","-73.8648268","40.8447819",NA
"1262","-119.8138027","39.5296329",NA
"1263","-73.8648268","40.8447819",NA
"1264","-73.8648268","40.8447819",NA
"1265","-73.8648268","40.8447819",NA
"1266","-119.8138027","39.5296329",NA
"1267","-73.8648268","40.8447819",NA
"1268","-73.8648268","40.8447819",NA
"1269","-86.5861037","34.7303688",NA
"1270","-73.8648268","40.8447819",NA
"1271","-71.4547891","42.9956397",NA
"1272","-73.8648268","40.8447819",NA
"1273","-73.8648268","40.8447819",NA
"1274","-71.4547891","42.9956397",NA
"1275","-73.8648268","40.8447819",NA
"1276","-73.8648268","40.8447819",NA
"1277","-73.8648268","40.8447819",NA
"1278","-73.8648268","40.8447819",NA
"1279","-73.8648268","40.8447819",NA
"1280","-73.8648268","40.8447819",NA
"1281","-91.1403196","30.4582829",NA
"1282","-73.8648268","40.8447819",NA
"1283","-73.8648268","40.8447819",NA
"1284","-121.530234","38.5804609",NA
"1285","-78.7811169","35.79154",NA
"1286","-86.5861037","34.7303688",NA
"1287","-73.8648268","40.8447819",NA
"1288","-97.3307658","32.7554883",NA
"1289","-73.8648268","40.8447819",NA
"1290","-73.8648268","40.8447819",NA
"1291","-73.8648268","40.8447819",NA
"1292","-79.7625625","34.1954331",NA
"1293","-73.8648268","40.8447819",NA
"1294","-112.3576567","33.4353394",NA
"1295","-73.8648268","40.8447819",NA
"1296","-87.2169149","30.421309",NA
"1297","-73.8648268","40.8447819",NA
"1298","-119.8138027","39.5296329",NA
"1299","-73.8648268","40.8447819",NA
"1300","-73.8648268","40.8447819",NA
"1301","-73.8648268","40.8447819",NA
"1302","-73.8648268","40.8447819",NA
"1303","-73.8648268","40.8447819",NA
"1304","-73.8648268","40.8447819",NA
"1305","-73.8648268","40.8447819",NA
"1306","-73.8648268","40.8447819",NA
"1307","-119.8138027","39.5296329",NA
"1308","-73.8648268","40.8447819",NA
"1309","-73.8648268","40.8447819",NA
"1310","-73.8648268","40.8447819",NA
"1311","-119.8138027","39.5296329",NA
"1312","-73.8648268","40.8447819",NA
"1313","-73.8648268","40.8447819",NA
"1314","-86.5861037","34.7303688",NA
"1315","-73.8648268","40.8447819",NA
"1316","-71.4547891","42.9956397",NA
"1317","-73.8648268","40.8447819",NA
"1318","-73.8648268","40.8447819",NA
"1319","-71.4547891","42.9956397",NA
"1320","-73.8648268","40.8447819",NA
"1321","-73.8648268","40.8447819",NA
"1322","-73.8648268","40.8447819",NA
"1323","-73.8648268","40.8447819",NA
"1324","-73.8648268","40.8447819",NA
"1325","-73.8648268","40.8447819",NA
"1326","-91.1403196","30.4582829",NA
"1327","-73.8648268","40.8447819",NA
"1328","-73.8648268","40.8447819",NA
"1329","-121.530234","38.5804609",NA
"1330","-78.7811169","35.79154",NA
"1331","-86.5861037","34.7303688",NA
"1332","-73.8648268","40.8447819",NA
"1333","-97.3307658","32.7554883",NA
"1334","-73.8648268","40.8447819",NA
"1335","-73.8648268","40.8447819",NA
"1336","-79.7625625","34.1954331",NA
"1337","-73.8648268","40.8447819",NA
"1338","-73.8648268","40.8447819",NA
"1339","-112.3576567","33.4353394",NA
"1340","-73.8648268","40.8447819",NA
"1341","-87.2169149","30.421309",NA
"1342","-73.8648268","40.8447819",NA
"1343","-119.8138027","39.5296329",NA
"1344","-73.8648268","40.8447819",NA
"1345","-73.8648268","40.8447819",NA
"1346","-73.8648268","40.8447819",NA
"1347","-73.8648268","40.8447819",NA
"1348","-73.8648268","40.8447819",NA
"1349","-73.8648268","40.8447819",NA
"1350","-73.8648268","40.8447819",NA
"1351","-73.8648268","40.8447819",NA
"1352","-119.8138027","39.5296329",NA
"1353","-73.8648268","40.8447819",NA
"1354","-73.8648268","40.8447819",NA
"1355","-73.8648268","40.8447819",NA
"1356","-119.8138027","39.5296329",NA
"1357","-73.8648268","40.8447819",NA
"1358","-73.8648268","40.8447819",NA
"1359","-86.5861037","34.7303688",NA
"1360","-73.8648268","40.8447819",NA
"1361","-71.4547891","42.9956397",NA
"1362","-73.8648268","40.8447819",NA
"1363","-73.8648268","40.8447819",NA
"1364","-71.4547891","42.9956397",NA
"1365","-73.8648268","40.8447819",NA
"1366","-73.8648268","40.8447819",NA
"1367","-73.8648268","40.8447819",NA
"1368","-73.8648268","40.8447819",NA
"1369","-73.8648268","40.8447819",NA
"1370","-73.8648268","40.8447819",NA
"1371","-91.1403196","30.4582829",NA
"1372","-73.8648268","40.8447819",NA
"1373","-73.8648268","40.8447819",NA
"1374","-121.530234","38.5804609",NA
"1375","-78.7811169","35.79154",NA
"1376","-86.5861037","34.7303688",NA
"1377","-73.8648268","40.8447819",NA
"1378","-97.3307658","32.7554883",NA
"1379","-73.8648268","40.8447819",NA
"1380","-73.8648268","40.8447819",NA
"1381","-73.8648268","40.8447819",NA
"1382","-79.7625625","34.1954331",NA
"1383","-73.8648268","40.8447819",NA
"1384","-112.3576567","33.4353394",NA
"1385","-73.8648268","40.8447819",NA
"1386","-87.2169149","30.421309",NA
"1387","-73.8648268","40.8447819",NA
"1388","-119.8138027","39.5296329",NA
"1389","-73.8648268","40.8447819",NA
"1390","-73.8648268","40.8447819",NA
"1391","-73.8648268","40.8447819",NA
"1392","-73.8648268","40.8447819",NA
"1393","-73.8648268","40.8447819",NA
"1394","-73.8648268","40.8447819",NA
"1395","-73.8648268","40.8447819",NA
"1396","-73.8648268","40.8447819",NA
"1397","-119.8138027","39.5296329",NA
"1398","-73.8648268","40.8447819",NA
"1399","-73.8648268","40.8447819",NA
"1400","-73.8648268","40.8447819",NA
"1401","-119.8138027","39.5296329",NA
"1402","-73.8648268","40.8447819",NA
"1403","-73.8648268","40.8447819",NA
"1404","-86.5861037","34.7303688",NA
"1405","-73.8648268","40.8447819",NA
"1406","-71.4547891","42.9956397",NA
"1407","-73.8648268","40.8447819",NA
"1408","-73.8648268","40.8447819",NA
"1409","-71.4547891","42.9956397",NA
"1410","-73.8648268","40.8447819",NA
"1411","-73.8648268","40.8447819",NA
"1412","-73.8648268","40.8447819",NA
"1413","-73.8648268","40.8447819",NA
"1414","-73.8648268","40.8447819",NA
"1415","-73.8648268","40.8447819",NA
"1416","-91.1403196","30.4582829",NA
"1417","-73.8648268","40.8447819",NA
"1418","-73.8648268","40.8447819",NA
"1419","-121.530234","38.5804609",NA
"1420","-78.7811169","35.79154",NA
"1421","-86.5861037","34.7303688",NA
"1422","-73.8648268","40.8447819",NA
"1423","-97.3307658","32.7554883",NA
"1424","-73.8648268","40.8447819",NA
"1425","-73.8648268","40.8447819",NA
"1426","-73.8648268","40.8447819",NA
"1427","-79.7625625","34.1954331",NA
"1428","-73.8648268","40.8447819",NA
"1429","-112.3576567","33.4353394",NA
"1430","-73.8648268","40.8447819",NA
"1431","-87.2169149","30.421309",NA
"1432","-73.8648268","40.8447819",NA
"1433","-119.8138027","39.5296329",NA
"1434","-73.8648268","40.8447819",NA
"1435","-73.8648268","40.8447819",NA
"1436","-73.8648268","40.8447819",NA
"1437","-73.8648268","40.8447819",NA
"1438","-73.8648268","40.8447819",NA
"1439","-73.8648268","40.8447819",NA
"1440","-73.8648268","40.8447819",NA
"1441","-73.8648268","40.8447819",NA
"1442","-119.8138027","39.5296329",NA
"1443","-73.8648268","40.8447819",NA
"1444","-73.8648268","40.8447819",NA
"1445","-73.8648268","40.8447819",NA
"1446","-119.8138027","39.5296329",NA
"1447","-73.8648268","40.8447819",NA
"1448","-73.8648268","40.8447819",NA
"1449","-86.5861037","34.7303688",NA
"1450","-73.8648268","40.8447819",NA
"1451","-71.4547891","42.9956397",NA
"1452","-73.8648268","40.8447819",NA
"1453","-73.8648268","40.8447819",NA
"1454","-71.4547891","42.9956397",NA
"1455","-73.8648268","40.8447819",NA
"1456","-73.8648268","40.8447819",NA
"1457","-73.8648268","40.8447819",NA
"1458","-73.8648268","40.8447819",NA
"1459","-73.8648268","40.8447819",NA
"1460","-73.8648268","40.8447819",NA
"1461","-91.1403196","30.4582829",NA
"1462","-73.8648268","40.8447819",NA
"1463","-73.8648268","40.8447819",NA
"1464","-121.530234","38.5804609",NA
"1465","-78.7811169","35.79154",NA
"1466","-86.5861037","34.7303688",NA
"1467","-73.8648268","40.8447819",NA
"1468","-97.3307658","32.7554883",NA
"1469","-73.8648268","40.8447819",NA
"1470","-73.8648268","40.8447819",NA
"1471","-73.8648268","40.8447819",NA
"1472","-79.7625625","34.1954331",NA
"1473","-73.8648268","40.8447819",NA
"1474","-112.3576567","33.4353394",NA
"1475","-73.8648268","40.8447819",NA
"1476","-87.2169149","30.421309",NA
"1477","-73.8648268","40.8447819",NA
"1478","-119.8138027","39.5296329",NA
"1479","-73.8648268","40.8447819",NA
"1480","-73.8648268","40.8447819",NA
"1481","-73.8648268","40.8447819",NA
"1482","-73.8648268","40.8447819",NA
"1483","-73.8648268","40.8447819",NA
"1484","-73.8648268","40.8447819",NA
"1485","-73.8648268","40.8447819",NA
"1486","-73.8648268","40.8447819",NA
"1487","-119.8138027","39.5296329",NA
"1488","-73.8648268","40.8447819",NA
"1489","-73.8648268","40.8447819",NA
"1490","-73.8648268","40.8447819",NA
"1491","-119.8138027","39.5296329",NA
"1492","-73.8648268","40.8447819",NA
"1493","-73.8648268","40.8447819",NA
"1494","-86.5861037","34.7303688",NA
"1495","-73.8648268","40.8447819",NA
"1496","-71.4547891","42.9956397",NA
"1497","-73.8648268","40.8447819",NA
"1498","-73.8648268","40.8447819",NA
"1499","-71.4547891","42.9956397",NA
"1500","-73.8648268","40.8447819",NA
"1501","-73.8648268","40.8447819",NA
"1502","-73.8648268","40.8447819",NA
"1503","-73.8648268","40.8447819",NA
"1504","-73.8648268","40.8447819",NA
"1505","-73.8648268","40.8447819",NA
"1506","-91.1403196","30.4582829",NA
"1507","-73.8648268","40.8447819",NA
"1508","-73.8648268","40.8447819",NA
"1509","-121.530234","38.5804609",NA
"1510","-78.7811169","35.79154",NA
"1511","-86.5861037","34.7303688",NA
"1512","-73.8648268","40.8447819",NA
"1513","-97.3307658","32.7554883",NA
"1514","-73.8648268","40.8447819",NA
"1515","-73.8648268","40.8447819",NA
"1516","-73.8648268","40.8447819",NA
"1517","-79.7625625","34.1954331",NA
"1518","-73.8648268","40.8447819",NA
"1519","-112.3576567","33.4353394",NA
"1520","-73.8648268","40.8447819",NA
"1521","-87.2169149","30.421309",NA
"1522","-73.8648268","40.8447819",NA
"1523","-119.8138027","39.5296329",NA
"1524","-73.8648268","40.8447819",NA
"1525","-73.8648268","40.8447819",NA
"1526","-73.8648268","40.8447819",NA
"1527","-73.8648268","40.8447819",NA
"1528","-73.8648268","40.8447819",NA
"1529","-73.8648268","40.8447819",NA
"1530","-73.8648268","40.8447819",NA
"1531","-73.8648268","40.8447819",NA
"1532","-119.8138027","39.5296329",NA
"1533","-73.8648268","40.8447819",NA
"1534","-73.8648268","40.8447819",NA
"1535","-73.8648268","40.8447819",NA
"1536","-119.8138027","39.5296329",NA
"1537","-73.8648268","40.8447819",NA
"1538","-73.8648268","40.8447819",NA
"1539","-86.5861037","34.7303688",NA
"1540","-73.8648268","40.8447819",NA
"1541","-71.4547891","42.9956397",NA
"1542","-73.8648268","40.8447819",NA
"1543","-73.8648268","40.8447819",NA
"1544","-71.4547891","42.9956397",NA
"1545","-73.8648268","40.8447819",NA
"1546","-73.8648268","40.8447819",NA
"1547","-73.8648268","40.8447819",NA
"1548","-73.8648268","40.8447819",NA
"1549","-73.8648268","40.8447819",NA
"1550","-73.8648268","40.8447819",NA
"1551","-91.1403196","30.4582829",NA
"1552","-73.8648268","40.8447819",NA
"1553","-73.8648268","40.8447819",NA
"1554","-121.530234","38.5804609",NA
"1555","-78.7811169","35.79154",NA
"1556","-86.5861037","34.7303688",NA
"1557","-73.8648268","40.8447819",NA
"1558","-97.3307658","32.7554883",NA
"1559","-73.8648268","40.8447819",NA
"1560","-73.8648268","40.8447819",NA
"1561","-73.8648268","40.8447819",NA
"1562","-79.7625625","34.1954331",NA
"1563","-73.8648268","40.8447819",NA
"1564","-112.3576567","33.4353394",NA
"1565","-73.8648268","40.8447819",NA
"1566","-87.2169149","30.421309",NA
"1567","-73.8648268","40.8447819",NA
"1568","-119.8138027","39.5296329",NA
"1569","-73.8648268","40.8447819",NA
"1570","-73.8648268","40.8447819",NA
"1571","-73.8648268","40.8447819",NA
"1572","-73.8648268","40.8447819",NA
"1573","-73.8648268","40.8447819",NA
"1574","-73.8648268","40.8447819",NA
"1575","-73.8648268","40.8447819",NA
"1576","-73.8648268","40.8447819",NA
"1577","-119.8138027","39.5296329",NA
"1578","-73.8648268","40.8447819",NA
"1579","-73.8648268","40.8447819",NA
"1580","-73.8648268","40.8447819",NA
"1581","-119.8138027","39.5296329",NA
"1582","-73.8648268","40.8447819",NA
"1583","-73.8648268","40.8447819",NA
"1584","-86.5861037","34.7303688",NA
"1585","-73.8648268","40.8447819",NA
"1586","-71.4547891","42.9956397",NA
"1587","-73.8648268","40.8447819",NA
"1588","-73.8648268","40.8447819",NA
"1589","-71.4547891","42.9956397",NA
"1590","-73.8648268","40.8447819",NA
"1591","-73.8648268","40.8447819",NA
"1592","-73.8648268","40.8447819",NA
"1593","-73.8648268","40.8447819",NA
"1594","-73.8648268","40.8447819",NA
"1595","-73.8648268","40.8447819",NA
"1596","-91.1403196","30.4582829",NA
"1597","-73.8648268","40.8447819",NA
"1598","-73.8648268","40.8447819",NA
"1599","-121.530234","38.5804609",NA
"1600","-78.7811169","35.79154",NA
"1601","-86.5861037","34.7303688",NA
"1602","-73.8648268","40.8447819",NA
"1603","-97.3307658","32.7554883",NA
"1604","-73.8648268","40.8447819",NA
"1605","-73.8648268","40.8447819",NA
"1606","-73.8648268","40.8447819",NA
"1607","-79.7625625","34.1954331",NA
"1608","-73.8648268","40.8447819",NA
"1609","-112.3576567","33.4353394",NA
"1610","-73.8648268","40.8447819",NA
"1611","-87.2169149","30.421309",NA
"1612","-73.8648268","40.8447819",NA
"1613","-119.8138027","39.5296329",NA
"1614","-73.8648268","40.8447819",NA
"1615","-73.8648268","40.8447819",NA
"1616","-73.8648268","40.8447819",NA
"1617","-73.8648268","40.8447819",NA
"1618","-73.8648268","40.8447819",NA
"1619","-73.8648268","40.8447819",NA
"1620","-73.8648268","40.8447819",NA
"1621","-73.8648268","40.8447819",NA
"1622","-119.8138027","39.5296329",NA
"1623","-73.8648268","40.8447819",NA
"1624","-73.8648268","40.8447819",NA
"1625","-73.8648268","40.8447819",NA
"1626","-119.8138027","39.5296329",NA
"1627","-73.8648268","40.8447819",NA
"1628","-73.8648268","40.8447819",NA
"1629","-86.5861037","34.7303688",NA
"1630","-73.8648268","40.8447819",NA
"1631","-71.4547891","42.9956397",NA
"1632","-73.8648268","40.8447819",NA
"1633","-73.8648268","40.8447819",NA
"1634","-71.4547891","42.9956397",NA
"1635","-73.8648268","40.8447819",NA
"1636","-73.8648268","40.8447819",NA
"1637","-73.8648268","40.8447819",NA
"1638","-73.8648268","40.8447819",NA
"1639","-73.8648268","40.8447819",NA
"1640","-73.8648268","40.8447819",NA
"1641","-91.1403196","30.4582829",NA
"1642","-73.8648268","40.8447819",NA
"1643","-73.8648268","40.8447819",NA
"1644","-121.530234","38.5804609",NA
"1645","-78.7811169","35.79154",NA
"1646","-86.5861037","34.7303688",NA
"1647","-73.8648268","40.8447819",NA
"1648","-97.3307658","32.7554883",NA
"1649","-73.8648268","40.8447819",NA
"1650","-73.8648268","40.8447819",NA
"1651","-73.8648268","40.8447819",NA
"1652","-79.7625625","34.1954331",NA
"1653","-73.8648268","40.8447819",NA
"1654","-112.3576567","33.4353394",NA
"1655","-73.8648268","40.8447819",NA
"1656","-87.2169149","30.421309",NA
"1657","-73.8648268","40.8447819",NA
"1658","-119.8138027","39.5296329",NA
"1659","-73.8648268","40.8447819",NA
"1660","-73.8648268","40.8447819",NA
"1661","-73.8648268","40.8447819",NA
"1662","-73.8648268","40.8447819",NA
"1663","-73.8648268","40.8447819",NA
"1664","-73.8648268","40.8447819",NA
"1665","-73.8648268","40.8447819",NA
"1666","-73.8648268","40.8447819",NA
"1667","-119.8138027","39.5296329",NA
"1668","-73.8648268","40.8447819",NA
"1669","-73.8648268","40.8447819",NA
"1670","-73.8648268","40.8447819",NA
"1671","-119.8138027","39.5296329",NA
"1672","-73.8648268","40.8447819",NA
"1673","-73.8648268","40.8447819",NA
"1674","-86.5861037","34.7303688",NA
"1675","-73.8648268","40.8447819",NA
"1676","-71.4547891","42.9956397",NA
"1677","-73.8648268","40.8447819",NA
"1678","-73.8648268","40.8447819",NA
"1679","-71.4547891","42.9956397",NA
"1680","-73.8648268","40.8447819",NA
"1681","-73.8648268","40.8447819",NA
"1682","-73.8648268","40.8447819",NA
"1683","-73.8648268","40.8447819",NA
"1684","-73.8648268","40.8447819",NA
"1685","-73.8648268","40.8447819",NA
"1686","-91.1403196","30.4582829",NA
"1687","-73.8648268","40.8447819",NA
"1688","-73.8648268","40.8447819",NA
"1689","-121.530234","38.5804609",NA
"1690","-78.7811169","35.79154",NA
"1691","-86.5861037","34.7303688",NA
"1692","-73.8648268","40.8447819",NA
"1693","-97.3307658","32.7554883",NA
"1694","-73.8648268","40.8447819",NA
"1695","-73.8648268","40.8447819",NA
"1696","-73.8648268","40.8447819",NA
"1697","-79.7625625","34.1954331",NA
"1698","-73.8648268","40.8447819",NA
"1699","-112.3576567","33.4353394",NA
"1700","-73.8648268","40.8447819",NA
"1701","-87.2169149","30.421309",NA
"1702","-73.8648268","40.8447819",NA
"1703","-119.8138027","39.5296329",NA
"1704","-73.8648268","40.8447819",NA
"1705","-73.8648268","40.8447819",NA
"1706","-73.8648268","40.8447819",NA
"1707","-73.8648268","40.8447819",NA
"1708","-73.8648268","40.8447819",NA
"1709","-73.8648268","40.8447819",NA
"1710","-73.8648268","40.8447819",NA
"1711","-73.8648268","40.8447819",NA
"1712","-119.8138027","39.5296329",NA
"1713","-73.8648268","40.8447819",NA
"1714","-73.8648268","40.8447819",NA
"1715","-73.8648268","40.8447819",NA
"1716","-119.8138027","39.5296329",NA
"1717","-73.8648268","40.8447819",NA
"1718","-73.8648268","40.8447819",NA
"1719","-86.5861037","34.7303688",NA
"1720","-73.8648268","40.8447819",NA
"1721","-71.4547891","42.9956397",NA
"1722","-73.8648268","40.8447819",NA
"1723","-73.8648268","40.8447819",NA
"1724","-71.4547891","42.9956397",NA
"1725","-73.8648268","40.8447819",NA
"1726","-73.8648268","40.8447819",NA
"1727","-73.8648268","40.8447819",NA
"1728","-73.8648268","40.8447819",NA
"1729","-73.8648268","40.8447819",NA
"1730","-73.8648268","40.8447819",NA
"1731","-91.1403196","30.4582829",NA
"1732","-73.8648268","40.8447819",NA
"1733","-73.8648268","40.8447819",NA
"1734","-121.530234","38.5804609",NA
"1735","-78.7811169","35.79154",NA
"1736","-86.5861037","34.7303688",NA
"1737","-73.8648268","40.8447819",NA
"1738","-97.3307658","32.7554883",NA
"1739","-73.8648268","40.8447819",NA
"1740","-73.8648268","40.8447819",NA
"1741","-73.8648268","40.8447819",NA
"1742","-79.7625625","34.1954331",NA
"1743","-73.8648268","40.8447819",NA
"1744","-112.3576567","33.4353394",NA
"1745","-73.8648268","40.8447819",NA
"1746","-87.2169149","30.421309",NA
"1747","-73.8648268","40.8447819",NA
"1748","-119.8138027","39.5296329",NA
"1749","-73.8648268","40.8447819",NA
"1750","-73.8648268","40.8447819",NA
"1751","-73.8648268","40.8447819",NA
"1752","-73.8648268","40.8447819",NA
"1753","-73.8648268","40.8447819",NA
"1754","-73.8648268","40.8447819",NA
"1755","-73.8648268","40.8447819",NA
"1756","-73.8648268","40.8447819",NA
"1757","-119.8138027","39.5296329",NA
"1758","-73.8648268","40.8447819",NA
"1759","-73.8648268","40.8447819",NA
"1760","-73.8648268","40.8447819",NA
"1761","-119.8138027","39.5296329",NA
"1762","-73.8648268","40.8447819",NA
"1763","-73.8648268","40.8447819",NA
"1764","-86.5861037","34.7303688",NA
"1765","-73.8648268","40.8447819",NA
"1766","-71.4547891","42.9956397",NA
"1767","-73.8648268","40.8447819",NA
"1768","-73.8648268","40.8447819",NA
"1769","-71.4547891","42.9956397",NA
"1770","-73.8648268","40.8447819",NA
"1771","-73.8648268","40.8447819",NA
"1772","-73.8648268","40.8447819",NA
"1773","-73.8648268","40.8447819",NA
"1774","-73.8648268","40.8447819",NA
"1775","-73.8648268","40.8447819",NA
"1776","-91.1403196","30.4582829",NA
"1777","-73.8648268","40.8447819",NA
"1778","-73.8648268","40.8447819",NA
"1779","-121.530234","38.5804609",NA
"1780","-78.7811169","35.79154",NA
"1781","-86.5861037","34.7303688",NA
"1782","-73.8648268","40.8447819",NA
"1783","-97.3307658","32.7554883",NA
"1784","-73.8648268","40.8447819",NA
"1785","-73.8648268","40.8447819",NA
"1786","-73.8648268","40.8447819",NA
"1787","-79.7625625","34.1954331",NA
"1788","-73.8648268","40.8447819",NA
"1789","-112.3576567","33.4353394",NA
"1790","-73.8648268","40.8447819",NA
"1791","-87.2169149","30.421309",NA
"1792","-73.8648268","40.8447819",NA
"1793","-119.8138027","39.5296329",NA
"1794","-73.8648268","40.8447819",NA
"1795","-73.8648268","40.8447819",NA
"1796","-73.8648268","40.8447819",NA
"1797","-73.8648268","40.8447819",NA
"1798","-73.8648268","40.8447819",NA
"1799","-73.8648268","40.8447819",NA
"1800","-73.8648268","40.8447819",NA
"1801","-73.8648268","40.8447819",NA
"1802","-119.8138027","39.5296329",NA
"1803","-73.8648268","40.8447819",NA
"1804","-73.8648268","40.8447819",NA
"1805","-73.8648268","40.8447819",NA
"1806","-119.8138027","39.5296329",NA
"1807","-73.8648268","40.8447819",NA
"1808","-73.8648268","40.8447819",NA
"1809","-86.5861037","34.7303688",NA
"1810","-73.8648268","40.8447819",NA
"1811","-71.4547891","42.9956397",NA
"1812","-73.8648268","40.8447819",NA
"1813","-73.8648268","40.8447819",NA
"1814","-71.4547891","42.9956397",NA
"1815","-73.8648268","40.8447819",NA
"1816","-73.8648268","40.8447819",NA
"1817","-73.8648268","40.8447819",NA
"1818","-73.8648268","40.8447819",NA
"1819","-73.8648268","40.8447819",NA
"1820","-73.8648268","40.8447819",NA
"1821","-91.1403196","30.4582829",NA
"1822","-73.8648268","40.8447819",NA
"1823","-73.8648268","40.8447819",NA
"1824","-121.530234","38.5804609",NA
"1825","-78.7811169","35.79154",NA
"1826","-86.5861037","34.7303688",NA
"1827","-73.8648268","40.8447819",NA
"1828","-97.3307658","32.7554883",NA
"1829","-73.8648268","40.8447819",NA
"1830","-73.8648268","40.8447819",NA
"1831","-73.8648268","40.8447819",NA
"1832","-79.7625625","34.1954331",NA
"1833","-73.8648268","40.8447819",NA
"1834","-112.3576567","33.4353394",NA
"1835","-73.8648268","40.8447819",NA
"1836","-87.2169149","30.421309",NA
"1837","-73.8648268","40.8447819",NA
"1838","-119.8138027","39.5296329",NA
"1839","-73.8648268","40.8447819",NA
"1840","-73.8648268","40.8447819",NA
"1841","-73.8648268","40.8447819",NA
"1842","-73.8648268","40.8447819",NA
"1843","-73.8648268","40.8447819",NA
"1844","-73.8648268","40.8447819",NA
"1845","-73.8648268","40.8447819",NA
"1846","-73.8648268","40.8447819",NA
"1847","-119.8138027","39.5296329",NA
"1848","-73.8648268","40.8447819",NA
"1849","-73.8648268","40.8447819",NA
"1850","-73.8648268","40.8447819",NA
"1851","-119.8138027","39.5296329",NA
"1852","-73.8648268","40.8447819",NA
"1853","-73.8648268","40.8447819",NA
"1854","-86.5861037","34.7303688",NA
"1855","-73.8648268","40.8447819",NA
"1856","-71.4547891","42.9956397",NA
"1857","-73.8648268","40.8447819",NA
"1858","-73.8648268","40.8447819",NA
"1859","-71.4547891","42.9956397",NA
"1860","-73.8648268","40.8447819",NA
"1861","-73.8648268","40.8447819",NA
"1862","-73.8648268","40.8447819",NA
"1863","-73.8648268","40.8447819",NA
"1864","-73.8648268","40.8447819",NA
"1865","-73.8648268","40.8447819",NA
"1866","-91.1403196","30.4582829",NA
"1867","-73.8648268","40.8447819",NA
"1868","-73.8648268","40.8447819",NA
"1869","-121.530234","38.5804609",NA
"1870","-78.7811169","35.79154",NA
"1871","-86.5861037","34.7303688",NA
"1872","-73.8648268","40.8447819",NA
"1873","-97.3307658","32.7554883",NA
"1874","-73.8648268","40.8447819",NA
"1875","-73.8648268","40.8447819",NA
"1876","-73.8648268","40.8447819",NA
"1877","-79.7625625","34.1954331",NA
"1878","-73.8648268","40.8447819",NA
"1879","-112.3576567","33.4353394",NA
"1880","-73.8648268","40.8447819",NA
"1881","-87.2169149","30.421309",NA
"1882","-73.8648268","40.8447819",NA
"1883","-119.8138027","39.5296329",NA
"1884","-73.8648268","40.8447819",NA
"1885","-73.8648268","40.8447819",NA
"1886","-73.8648268","40.8447819",NA
"1887","-73.8648268","40.8447819",NA
"1888","-73.8648268","40.8447819",NA
"1889","-73.8648268","40.8447819",NA
"1890","-73.8648268","40.8447819",NA
"1891","-73.8648268","40.8447819",NA
"1892","-119.8138027","39.5296329",NA
"1893","-73.8648268","40.8447819",NA
"1894","-73.8648268","40.8447819",NA
"1895","-73.8648268","40.8447819",NA
"1896","-119.8138027","39.5296329",NA
"1897","-73.8648268","40.8447819",NA
"1898","-73.8648268","40.8447819",NA
"1899","-86.5861037","34.7303688",NA
"1900","-73.8648268","40.8447819",NA
"1901","-71.4547891","42.9956397",NA
"1902","-73.8648268","40.8447819",NA
"1903","-73.8648268","40.8447819",NA
"1904","-71.4547891","42.9956397",NA
"1905","-73.8648268","40.8447819",NA
"1906","-73.8648268","40.8447819",NA
"1907","-73.8648268","40.8447819",NA
"1908","-73.8648268","40.8447819",NA
"1909","-73.8648268","40.8447819",NA
"1910","-73.8648268","40.8447819",NA
"1911","-91.1403196","30.4582829",NA
"1912","-73.8648268","40.8447819",NA
"1913","-73.8648268","40.8447819",NA
"1914","-121.530234","38.5804609",NA
"1915","-78.7811169","35.79154",NA
"1916","-86.5861037","34.7303688",NA
"1917","-73.8648268","40.8447819",NA
"1918","-97.3307658","32.7554883",NA
"1919","-73.8648268","40.8447819",NA
"1920","-73.8648268","40.8447819",NA
"1921","-73.8648268","40.8447819",NA
"1922","-79.7625625","34.1954331",NA
"1923","-73.8648268","40.8447819",NA
"1924","-112.3576567","33.4353394",NA
"1925","-73.8648268","40.8447819",NA
"1926","-87.2169149","30.421309",NA
"1927","-73.8648268","40.8447819",NA
"1928","-119.8138027","39.5296329",NA
"1929","-73.8648268","40.8447819",NA
"1930","-73.8648268","40.8447819",NA
"1931","-73.8648268","40.8447819",NA
"1932","-73.8648268","40.8447819",NA
"1933","-73.8648268","40.8447819",NA
"1934","-73.8648268","40.8447819",NA
"1935","-73.8648268","40.8447819",NA
"1936","-73.8648268","40.8447819",NA
"1937","-119.8138027","39.5296329",NA
"1938","-73.8648268","40.8447819",NA
"1939","-73.8648268","40.8447819",NA
"1940","-73.8648268","40.8447819",NA
"1941","-119.8138027","39.5296329",NA
"1942","-73.8648268","40.8447819",NA
"1943","-73.8648268","40.8447819",NA
"1944","-86.5861037","34.7303688",NA
"1945","-73.8648268","40.8447819",NA
"1946","-71.4547891","42.9956397",NA
"1947","-73.8648268","40.8447819",NA
"1948","-73.8648268","40.8447819",NA
"1949","-71.4547891","42.9956397",NA
"1950","-73.8648268","40.8447819",NA
"1951","-73.8648268","40.8447819",NA
"1952","-73.8648268","40.8447819",NA
"1953","-73.8648268","40.8447819",NA
"1954","-73.8648268","40.8447819",NA
"1955","-73.8648268","40.8447819",NA
"1956","-91.1403196","30.4582829",NA
"1957","-73.8648268","40.8447819",NA
"1958","-73.8648268","40.8447819",NA
"1959","-121.530234","38.5804609",NA
"1960","-78.7811169","35.79154",NA
"1961","-86.5861037","34.7303688",NA
"1962","-73.8648268","40.8447819",NA
"1963","-97.3307658","32.7554883",NA
"1964","-73.8648268","40.8447819",NA
"1965","-73.8648268","40.8447819",NA
"1966","-73.8648268","40.8447819",NA
"1967","-79.7625625","34.1954331",NA
"1968","-73.8648268","40.8447819",NA
"1969","-112.3576567","33.4353394",NA
"1970","-73.8648268","40.8447819",NA
"1971","-87.2169149","30.421309",NA
"1972","-73.8648268","40.8447819",NA
"1973","-119.8138027","39.5296329",NA
"1974","-73.8648268","40.8447819",NA
"1975","-73.8648268","40.8447819",NA
"1976","-73.8648268","40.8447819",NA
"1977","-73.8648268","40.8447819",NA
"1978","-73.8648268","40.8447819",NA
"1979","-73.8648268","40.8447819",NA
"1980","-73.8648268","40.8447819",NA
"1981","-73.8648268","40.8447819",NA
"1982","-119.8138027","39.5296329",NA
"1983","-73.8648268","40.8447819",NA
"1984","-73.8648268","40.8447819",NA
"1985","-73.8648268","40.8447819",NA
"1986","-119.8138027","39.5296329",NA
"1987","-73.8648268","40.8447819",NA
"1988","-73.8648268","40.8447819",NA
"1989","-86.5861037","34.7303688",NA
"1990","-73.8648268","40.8447819",NA
"1991","-71.4547891","42.9956397",NA
"1992","-73.8648268","40.8447819",NA
"1993","-73.8648268","40.8447819",NA
"1994","-71.4547891","42.9956397",NA
"1995","-73.8648268","40.8447819",NA
"1996","-73.8648268","40.8447819",NA
"1997","-73.8648268","40.8447819",NA
"1998","-73.8648268","40.8447819",NA
"1999","-73.8648268","40.8447819",NA
"2000","-73.8648268","40.8447819",NA
"2001","-91.1403196","30.4582829",NA
"2002","-73.8648268","40.8447819",NA
"2003","-73.8648268","40.8447819",NA
"2004","-121.530234","38.5804609",NA
"2005","-78.7811169","35.79154",NA
"2006","-86.5861037","34.7303688",NA
"2007","-73.8648268","40.8447819",NA
"2008","-97.3307658","32.7554883",NA
"2009","-73.8648268","40.8447819",NA
"2010","-73.8648268","40.8447819",NA
"2011","-73.8648268","40.8447819",NA
"2012","-79.7625625","34.1954331",NA
"2013","-73.8648268","40.8447819",NA
"2014","-112.3576567","33.4353394",NA
"2015","-73.8648268","40.8447819",NA
"2016","-87.2169149","30.421309",NA
"2017","-73.8648268","40.8447819",NA
"2018","-119.8138027","39.5296329",NA
"2019","-73.8648268","40.8447819",NA
"2020","-73.8648268","40.8447819",NA
"2021","-73.8648268","40.8447819",NA
"2022","-73.8648268","40.8447819",NA
"2023","-73.8648268","40.8447819",NA
"2024","-73.8648268","40.8447819",NA
"2025","-73.8648268","40.8447819",NA
"2026","-73.8648268","40.8447819",NA
"2027","-119.8138027","39.5296329",NA
"2028","-73.8648268","40.8447819",NA
"2029","-73.8648268","40.8447819",NA
"2030","-73.8648268","40.8447819",NA
"2031","-119.8138027","39.5296329",NA
"2032","-73.8648268","40.8447819",NA
"2033","-73.8648268","40.8447819",NA
"2034","-86.5861037","34.7303688",NA
"2035","-73.8648268","40.8447819",NA
"2036","-71.4547891","42.9956397",NA
"2037","-73.8648268","40.8447819",NA
"2038","-73.8648268","40.8447819",NA
"2039","-71.4547891","42.9956397",NA
"2040","-73.8648268","40.8447819",NA
"2041","-73.8648268","40.8447819",NA
"2042","-73.8648268","40.8447819",NA
"2043","-73.8648268","40.8447819",NA
"2044","-73.8648268","40.8447819",NA
"2045","-73.8648268","40.8447819",NA
"2046","-91.1403196","30.4582829",NA
"2047","-73.8648268","40.8447819",NA
"2048","-73.8648268","40.8447819",NA
"2049","-121.530234","38.5804609",NA
"2050","-78.7811169","35.79154",NA
"2051","-86.5861037","34.7303688",NA
"2052","-73.8648268","40.8447819",NA
"2053","-97.3307658","32.7554883",NA
"2054","-73.8648268","40.8447819",NA
"2055","-73.8648268","40.8447819",NA
"2056","-73.8648268","40.8447819",NA
"2057","-79.7625625","34.1954331",NA
"2058","-73.8648268","40.8447819",NA
"2059","-112.3576567","33.4353394",NA
"2060","-73.8648268","40.8447819",NA
"2061","-87.2169149","30.421309",NA
"2062","-73.8648268","40.8447819",NA
"2063","-119.8138027","39.5296329",NA
"2064","-73.8648268","40.8447819",NA
"2065","-73.8648268","40.8447819",NA
"2066","-73.8648268","40.8447819",NA
"2067","-73.8648268","40.8447819",NA
"2068","-73.8648268","40.8447819",NA
"2069","-73.8648268","40.8447819",NA
"2070","-73.8648268","40.8447819",NA
"2071","-73.8648268","40.8447819",NA
"2072","-119.8138027","39.5296329",NA
"2073","-73.8648268","40.8447819",NA
"2074","-73.8648268","40.8447819",NA
"2075","-73.8648268","40.8447819",NA
"2076","-119.8138027","39.5296329",NA
"2077","-73.8648268","40.8447819",NA
"2078","-73.8648268","40.8447819",NA
"2079","-86.5861037","34.7303688",NA
"2080","-73.8648268","40.8447819",NA
"2081","-71.4547891","42.9956397",NA
"2082","-73.8648268","40.8447819",NA
"2083","-73.8648268","40.8447819",NA
"2084","-71.4547891","42.9956397",NA
"2085","-73.8648268","40.8447819",NA
"2086","-73.8648268","40.8447819",NA
"2087","-73.8648268","40.8447819",NA
"2088","-73.8648268","40.8447819",NA
"2089","-73.8648268","40.8447819",NA
"2090","-73.8648268","40.8447819",NA
"2091","-91.1403196","30.4582829",NA
"2092","-73.8648268","40.8447819",NA
"2093","-73.8648268","40.8447819",NA
"2094","-121.530234","38.5804609",NA
"2095","-78.7811169","35.79154",NA
"2096","-86.5861037","34.7303688",NA
"2097","-73.8648268","40.8447819",NA
"2098","-97.3307658","32.7554883",NA
"2099","-73.8648268","40.8447819",NA
"2100","-73.8648268","40.8447819",NA
"2101","-73.8648268","40.8447819",NA
"2102","-79.7625625","34.1954331",NA
"2103","-73.8648268","40.8447819",NA
"2104","-112.3576567","33.4353394",NA
"2105","-73.8648268","40.8447819",NA
"2106","-87.2169149","30.421309",NA
"2107","-73.8648268","40.8447819",NA
"2108","-119.8138027","39.5296329",NA
"2109","-73.8648268","40.8447819",NA
"2110","-73.8648268","40.8447819",NA
"2111","-73.8648268","40.8447819",NA
"2112","-73.8648268","40.8447819",NA
"2113","-73.8648268","40.8447819",NA
"2114","-73.8648268","40.8447819",NA
"2115","-73.8648268","40.8447819",NA
"2116","-73.8648268","40.8447819",NA
"2117","-119.8138027","39.5296329",NA
"2118","-73.8648268","40.8447819",NA
"2119","-73.8648268","40.8447819",NA
"2120","-73.8648268","40.8447819",NA
"2121","-119.8138027","39.5296329",NA
"2122","-73.8648268","40.8447819",NA
"2123","-73.8648268","40.8447819",NA
"2124","-86.5861037","34.7303688",NA
"2125","-73.8648268","40.8447819",NA
"2126","-71.4547891","42.9956397",NA
"2127","-73.8648268","40.8447819",NA
"2128","-73.8648268","40.8447819",NA
"2129","-71.4547891","42.9956397",NA
"2130","-73.8648268","40.8447819",NA
"2131","-73.8648268","40.8447819",NA
"2132","-73.8648268","40.8447819",NA
"2133","-73.8648268","40.8447819",NA
"2134","-73.8648268","40.8447819",NA
"2135","-73.8648268","40.8447819",NA
"2136","-91.1403196","30.4582829",NA
"2137","-73.8648268","40.8447819",NA
"2138","-73.8648268","40.8447819",NA
"2139","-121.530234","38.5804609",NA
"2140","-78.7811169","35.79154",NA
"2141","-86.5861037","34.7303688",NA
"2142","-73.8648268","40.8447819",NA
"2143","-97.3307658","32.7554883",NA
"2144","-73.8648268","40.8447819",NA
"2145","-73.8648268","40.8447819",NA
"2146","-73.8648268","40.8447819",NA
"2147","-79.7625625","34.1954331",NA
"2148","-73.8648268","40.8447819",NA
"2149","-112.3576567","33.4353394",NA
"2150","-73.8648268","40.8447819",NA
"2151","-87.2169149","30.421309",NA
"2152","-73.8648268","40.8447819",NA
"2153","-119.8138027","39.5296329",NA
"2154","-73.8648268","40.8447819",NA
"2155","-73.8648268","40.8447819",NA
"2156","-73.8648268","40.8447819",NA
"2157","-73.8648268","40.8447819",NA
"2158","-73.8648268","40.8447819",NA
"2159","-73.8648268","40.8447819",NA
"2160","-73.8648268","40.8447819",NA
"2161","-73.8648268","40.8447819",NA
"2162","-119.8138027","39.5296329",NA
"2163","-73.8648268","40.8447819",NA
"2164","-73.8648268","40.8447819",NA
"2165","-73.8648268","40.8447819",NA
"2166","-119.8138027","39.5296329",NA
"2167","-73.8648268","40.8447819",NA
"2168","-73.8648268","40.8447819",NA
"2169","-86.5861037","34.7303688",NA
"2170","-73.8648268","40.8447819",NA
"2171","-71.4547891","42.9956397",NA
"2172","-73.8648268","40.8447819",NA
"2173","-73.8648268","40.8447819",NA
"2174","-71.4547891","42.9956397",NA
"2175","-73.8648268","40.8447819",NA
"2176","-73.8648268","40.8447819",NA
"2177","-73.8648268","40.8447819",NA
"2178","-73.8648268","40.8447819",NA
"2179","-73.8648268","40.8447819",NA
"2180","-73.8648268","40.8447819",NA
"2181","-91.1403196","30.4582829",NA
"2182","-73.8648268","40.8447819",NA
"2183","-73.8648268","40.8447819",NA
"2184","-121.530234","38.5804609",NA
"2185","-78.7811169","35.79154",NA
"2186","-86.5861037","34.7303688",NA
"2187","-73.8648268","40.8447819",NA
"2188","-97.3307658","32.7554883",NA
"2189","-73.8648268","40.8447819",NA
"2190","-73.8648268","40.8447819",NA
"2191","-73.8648268","40.8447819",NA
"2192","-79.7625625","34.1954331",NA
"2193","-73.8648268","40.8447819",NA
"2194","-112.3576567","33.4353394",NA
"2195","-73.8648268","40.8447819",NA
"2196","-87.2169149","30.421309",NA
"2197","-73.8648268","40.8447819",NA
"2198","-119.8138027","39.5296329",NA
"2199","-73.8648268","40.8447819",NA
"2200","-73.8648268","40.8447819",NA
"2201","-73.8648268","40.8447819",NA
"2202","-73.8648268","40.8447819",NA
"2203","-73.8648268","40.8447819",NA
"2204","-73.8648268","40.8447819",NA
"2205","-73.8648268","40.8447819",NA
"2206","-73.8648268","40.8447819",NA
"2207","-119.8138027","39.5296329",NA
"2208","-73.8648268","40.8447819",NA
"2209","-73.8648268","40.8447819",NA
"2210","-73.8648268","40.8447819",NA
"2211","-119.8138027","39.5296329",NA
"2212","-73.8648268","40.8447819",NA
"2213","-73.8648268","40.8447819",NA
"2214","-86.5861037","34.7303688",NA
"2215","-73.8648268","40.8447819",NA
"2216","-71.4547891","42.9956397",NA
"2217","-73.8648268","40.8447819",NA
"2218","-73.8648268","40.8447819",NA
"2219","-71.4547891","42.9956397",NA
"2220","-73.8648268","40.8447819",NA
"2221","-73.8648268","40.8447819",NA
"2222","-73.8648268","40.8447819",NA
"2223","-73.8648268","40.8447819",NA
"2224","-73.8648268","40.8447819",NA
"2225","-73.8648268","40.8447819",NA
"2226","-91.1403196","30.4582829",NA
"2227","-73.8648268","40.8447819",NA
"2228","-73.8648268","40.8447819",NA
"2229","-121.530234","38.5804609",NA
"2230","-78.7811169","35.79154",NA
"2231","-86.5861037","34.7303688",NA
"2232","-73.8648268","40.8447819",NA
"2233","-97.3307658","32.7554883",NA
"2234","-73.8648268","40.8447819",NA
"2235","-73.8648268","40.8447819",NA
"2236","-73.8648268","40.8447819",NA
"2237","-79.7625625","34.1954331",NA
"2238","-73.8648268","40.8447819",NA
"2239","-112.3576567","33.4353394",NA
"2240","-73.8648268","40.8447819",NA
"2241","-87.2169149","30.421309",NA
"2242","-73.8648268","40.8447819",NA
"2243","-119.8138027","39.5296329",NA
"2244","-73.8648268","40.8447819",NA
"2245","-73.8648268","40.8447819",NA
"2246","-73.8648268","40.8447819",NA
"2247","-73.8648268","40.8447819",NA
"2248","-73.8648268","40.8447819",NA
"2249","-73.8648268","40.8447819",NA
"2250","-73.8648268","40.8447819",NA
"2251","-73.8648268","40.8447819",NA
"2252","-119.8138027","39.5296329",NA
"2253","-73.8648268","40.8447819",NA
"2254","-73.8648268","40.8447819",NA
"2255","-73.8648268","40.8447819",NA
"2256","-119.8138027","39.5296329",NA
"2257","-73.8648268","40.8447819",NA
"2258","-73.8648268","40.8447819",NA
"2259","-86.5861037","34.7303688",NA
"2260","-73.8648268","40.8447819",NA
"2261","-71.4547891","42.9956397",NA
"2262","-73.8648268","40.8447819",NA
"2263","-73.8648268","40.8447819",NA
"2264","-71.4547891","42.9956397",NA
"2265","-73.8648268","40.8447819",NA
"2266","-73.8648268","40.8447819",NA
"2267","-73.8648268","40.8447819",NA
"2268","-73.8648268","40.8447819",NA
"2269","-73.8648268","40.8447819",NA
"2270","-73.8648268","40.8447819",NA
"2271","-91.1403196","30.4582829",NA
"2272","-73.8648268","40.8447819",NA
"2273","-73.8648268","40.8447819",NA
"2274","-121.530234","38.5804609",NA
"2275","-78.7811169","35.79154",NA
"2276","-86.5861037","34.7303688",NA
"2277","-73.8648268","40.8447819",NA
"2278","-97.3307658","32.7554883",NA
"2279","-73.8648268","40.8447819",NA
"2280","-73.8648268","40.8447819",NA
"2281","-73.8648268","40.8447819",NA
"2282","-79.7625625","34.1954331",NA
"2283","-73.8648268","40.8447819",NA
"2284","-112.3576567","33.4353394",NA
"2285","-73.8648268","40.8447819",NA
"2286","-87.2169149","30.421309",NA
"2287","-73.8648268","40.8447819",NA
"2288","-119.8138027","39.5296329",NA
"2289","-73.8648268","40.8447819",NA
"2290","-73.8648268","40.8447819",NA
"2291","-73.8648268","40.8447819",NA
"2292","-73.8648268","40.8447819",NA
"2293","-73.8648268","40.8447819",NA
"2294","-73.8648268","40.8447819",NA
"2295","-73.8648268","40.8447819",NA
"2296","-73.8648268","40.8447819",NA
"2297","-119.8138027","39.5296329",NA
"2298","-73.8648268","40.8447819",NA
"2299","-73.8648268","40.8447819",NA
"2300","-73.8648268","40.8447819",NA
"2301","-119.8138027","39.5296329",NA
"2302","-73.8648268","40.8447819",NA
"2303","-73.8648268","40.8447819",NA
"2304","-86.5861037","34.7303688",NA
"2305","-73.8648268","40.8447819",NA
"2306","-71.4547891","42.9956397",NA
"2307","-73.8648268","40.8447819",NA
"2308","-73.8648268","40.8447819",NA
"2309","-71.4547891","42.9956397",NA
"2310","-73.8648268","40.8447819",NA
"2311","-73.8648268","40.8447819",NA
"2312","-73.8648268","40.8447819",NA
"2313","-73.8648268","40.8447819",NA
"2314","-73.8648268","40.8447819",NA
"2315","-73.8648268","40.8447819",NA
"2316","-91.1403196","30.4582829",NA
"2317","-73.8648268","40.8447819",NA
"2318","-73.8648268","40.8447819",NA
"2319","-121.530234","38.5804609",NA
"2320","-78.7811169","35.79154",NA
"2321","-86.5861037","34.7303688",NA
"2322","-73.8648268","40.8447819",NA
"2323","-97.3307658","32.7554883",NA
"2324","-73.8648268","40.8447819",NA
"2325","-73.8648268","40.8447819",NA
"2326","-73.8648268","40.8447819",NA
"2327","-79.7625625","34.1954331",NA
"2328","-73.8648268","40.8447819",NA
"2329","-112.3576567","33.4353394",NA
"2330","-73.8648268","40.8447819",NA
"2331","-87.2169149","30.421309",NA
"2332","-73.8648268","40.8447819",NA
"2333","-119.8138027","39.5296329",NA
"2334","-73.8648268","40.8447819",NA
"2335","-73.8648268","40.8447819",NA
"2336","-73.8648268","40.8447819",NA
"2337","-73.8648268","40.8447819",NA
"2338","-73.8648268","40.8447819",NA
"2339","-73.8648268","40.8447819",NA
"2340","-73.8648268","40.8447819",NA
"2341","-73.8648268","40.8447819",NA
"2342","-119.8138027","39.5296329",NA
"2343","-73.8648268","40.8447819",NA
"2344","-73.8648268","40.8447819",NA
"2345","-73.8648268","40.8447819",NA
"2346","-119.8138027","39.5296329",NA
"2347","-73.8648268","40.8447819",NA
"2348","-73.8648268","40.8447819",NA
"2349","-86.5861037","34.7303688",NA
"2350","-73.8648268","40.8447819",NA
"2351","-71.4547891","42.9956397",NA
"2352","-73.8648268","40.8447819",NA
"2353","-73.8648268","40.8447819",NA
"2354","-71.4547891","42.9956397",NA
"2355","-73.8648268","40.8447819",NA
"2356","-73.8648268","40.8447819",NA
"2357","-73.8648268","40.8447819",NA
"2358","-73.8648268","40.8447819",NA
"2359","-73.8648268","40.8447819",NA
"2360","-73.8648268","40.8447819",NA
"2361","-91.1403196","30.4582829",NA
"2362","-73.8648268","40.8447819",NA
"2363","-73.8648268","40.8447819",NA
"2364","-121.530234","38.5804609",NA
"2365","-78.7811169","35.79154",NA
"2366","-86.5861037","34.7303688",NA
"2367","-73.8648268","40.8447819",NA
"2368","-97.3307658","32.7554883",NA
"2369","-73.8648268","40.8447819",NA
"2370","-73.8648268","40.8447819",NA
"2371","-73.8648268","40.8447819",NA
"2372","-79.7625625","34.1954331",NA
"2373","-73.8648268","40.8447819",NA
"2374","-112.3576567","33.4353394",NA
"2375","-73.8648268","40.8447819",NA
"2376","-87.2169149","30.421309",NA
"2377","-73.8648268","40.8447819",NA
"2378","-119.8138027","39.5296329",NA
"2379","-73.8648268","40.8447819",NA
"2380","-73.8648268","40.8447819",NA
"2381","-73.8648268","40.8447819",NA
"2382","-73.8648268","40.8447819",NA
"2383","-73.8648268","40.8447819",NA
"2384","-73.8648268","40.8447819",NA
"2385","-73.8648268","40.8447819",NA
"2386","-73.8648268","40.8447819",NA
"2387","-119.8138027","39.5296329",NA
"2388","-73.8648268","40.8447819",NA
"2389","-73.8648268","40.8447819",NA
"2390","-73.8648268","40.8447819",NA
"2391","-119.8138027","39.5296329",NA
"2392","-73.8648268","40.8447819",NA
"2393","-73.8648268","40.8447819",NA
"2394","-86.5861037","34.7303688",NA
"2395","-73.8648268","40.8447819",NA
"2396","-71.4547891","42.9956397",NA
"2397","-73.8648268","40.8447819",NA
"2398","-73.8648268","40.8447819",NA
"2399","-71.4547891","42.9956397",NA
"2400","-73.8648268","40.8447819",NA
"2401","-73.8648268","40.8447819",NA
"2402","-73.8648268","40.8447819",NA
"2403","-73.8648268","40.8447819",NA
"2404","-73.8648268","40.8447819",NA
"2405","-73.8648268","40.8447819",NA
"2406","-91.1403196","30.4582829",NA
"2407","-73.8648268","40.8447819",NA
"2408","-73.8648268","40.8447819",NA
"2409","-121.530234","38.5804609",NA
"2410","-78.7811169","35.79154",NA
"2411","-86.5861037","34.7303688",NA
"2412","-73.8648268","40.8447819",NA
"2413","-97.3307658","32.7554883",NA
"2414","-73.8648268","40.8447819",NA
"2415","-73.8648268","40.8447819",NA
"2416","-73.8648268","40.8447819",NA
"2417","-79.7625625","34.1954331",NA
"2418","-73.8648268","40.8447819",NA
"2419","-112.3576567","33.4353394",NA
"2420","-73.8648268","40.8447819",NA
"2421","-87.2169149","30.421309",NA
"2422","-73.8648268","40.8447819",NA
"2423","-119.8138027","39.5296329",NA
"2424","-73.8648268","40.8447819",NA
"2425","-73.8648268","40.8447819",NA
"2426","-73.8648268","40.8447819",NA
"2427","-73.8648268","40.8447819",NA
"2428","-73.8648268","40.8447819",NA
"2429","-73.8648268","40.8447819",NA
"2430","-73.8648268","40.8447819",NA
"2431","-73.8648268","40.8447819",NA
"2432","-119.8138027","39.5296329",NA
"2433","-73.8648268","40.8447819",NA
"2434","-73.8648268","40.8447819",NA
"2435","-73.8648268","40.8447819",NA
"2436","-119.8138027","39.5296329",NA
"2437","-73.8648268","40.8447819",NA
"2438","-73.8648268","40.8447819",NA
"2439","-86.5861037","34.7303688",NA
"2440","-73.8648268","40.8447819",NA
"2441","-71.4547891","42.9956397",NA
"2442","-73.8648268","40.8447819",NA
"2443","-73.8648268","40.8447819",NA
"2444","-71.4547891","42.9956397",NA
"2445","-73.8648268","40.8447819",NA
"2446","-73.8648268","40.8447819",NA
"2447","-73.8648268","40.8447819",NA
"2448","-73.8648268","40.8447819",NA
"2449","-73.8648268","40.8447819",NA
"2450","-73.8648268","40.8447819",NA
"2451","-91.1403196","30.4582829",NA
"2452","-73.8648268","40.8447819",NA
"2453","-73.8648268","40.8447819",NA
"2454","-121.530234","38.5804609",NA
"2455","-78.7811169","35.79154",NA
"2456","-86.5861037","34.7303688",NA
"2457","-73.8648268","40.8447819",NA
"2458","-97.3307658","32.7554883",NA
"2459","-73.8648268","40.8447819",NA
"2460","-73.8648268","40.8447819",NA
"2461","-73.8648268","40.8447819",NA
"2462","-79.7625625","34.1954331",NA
"2463","-73.8648268","40.8447819",NA
"2464","-112.3576567","33.4353394",NA
"2465","-73.8648268","40.8447819",NA
"2466","-87.2169149","30.421309",NA
"2467","-73.8648268","40.8447819",NA
"2468","-119.8138027","39.5296329",NA
"2469","-73.8648268","40.8447819",NA
"2470","-73.8648268","40.8447819",NA
"2471","-73.8648268","40.8447819",NA
"2472","-73.8648268","40.8447819",NA
"2473","-73.8648268","40.8447819",NA
"2474","-73.8648268","40.8447819",NA
"2475","-73.8648268","40.8447819",NA
"2476","-73.8648268","40.8447819",NA
"2477","-119.8138027","39.5296329",NA
"2478","-73.8648268","40.8447819",NA
"2479","-73.8648268","40.8447819",NA
"2480","-73.8648268","40.8447819",NA
"2481","-119.8138027","39.5296329",NA
"2482","-73.8648268","40.8447819",NA
"2483","-73.8648268","40.8447819",NA
"2484","-86.5861037","34.7303688",NA
"2485","-73.8648268","40.8447819",NA
"2486","-71.4547891","42.9956397",NA
"2487","-73.8648268","40.8447819",NA
"2488","-73.8648268","40.8447819",NA
"2489","-71.4547891","42.9956397",NA
"2490","-73.8648268","40.8447819",NA
"2491","-73.8648268","40.8447819",NA
"2492","-73.8648268","40.8447819",NA
"2493","-73.8648268","40.8447819",NA
"2494","-73.8648268","40.8447819",NA
"2495","-73.8648268","40.8447819",NA
"2496","-91.1403196","30.4582829",NA
"2497","-73.8648268","40.8447819",NA
"2498","-73.8648268","40.8447819",NA
"2499","-121.530234","38.5804609",NA
"2500","-78.7811169","35.79154",NA
"2501","-86.5861037","34.7303688",NA
"2502","-73.8648268","40.8447819",NA
"2503","-97.3307658","32.7554883",NA
"2504","-73.8648268","40.8447819",NA
"2505","-73.8648268","40.8447819",NA
"2506","-73.8648268","40.8447819",NA
"2507","-79.7625625","34.1954331",NA
"2508","-73.8648268","40.8447819",NA
"2509","-112.3576567","33.4353394",NA
"2510","-73.8648268","40.8447819",NA
"2511","-87.2169149","30.421309",NA
"2512","-73.8648268","40.8447819",NA
"2513","-119.8138027","39.5296329",NA
"2514","-73.8648268","40.8447819",NA
"2515","-73.8648268","40.8447819",NA
"2516","-73.8648268","40.8447819",NA
"2517","-73.8648268","40.8447819",NA
"2518","-73.8648268","40.8447819",NA
"2519","-73.8648268","40.8447819",NA
"2520","-73.8648268","40.8447819",NA
"2521","-73.8648268","40.8447819",NA
"2522","-119.8138027","39.5296329",NA
"2523","-73.8648268","40.8447819",NA
"2524","-73.8648268","40.8447819",NA
"2525","-73.8648268","40.8447819",NA
"2526","-119.8138027","39.5296329",NA
"2527","-73.8648268","40.8447819",NA
"2528","-73.8648268","40.8447819",NA
"2529","-86.5861037","34.7303688",NA
"2530","-73.8648268","40.8447819",NA
"2531","-71.4547891","42.9956397",NA
"2532","-73.8648268","40.8447819",NA
"2533","-73.8648268","40.8447819",NA
"2534","-71.4547891","42.9956397",NA
"2535","-73.8648268","40.8447819",NA
"2536","-73.8648268","40.8447819",NA
"2537","-73.8648268","40.8447819",NA
"2538","-73.8648268","40.8447819",NA
"2539","-73.8648268","40.8447819",NA
"2540","-73.8648268","40.8447819",NA
"2541","-91.1403196","30.4582829",NA
"2542","-73.8648268","40.8447819",NA
"2543","-73.8648268","40.8447819",NA
"2544","-121.530234","38.5804609",NA
"2545","-78.7811169","35.79154",NA
"2546","-86.5861037","34.7303688",NA
"2547","-73.8648268","40.8447819",NA
"2548","-97.3307658","32.7554883",NA
"2549","-73.8648268","40.8447819",NA
"2550","-73.8648268","40.8447819",NA
"2551","-73.8648268","40.8447819",NA
"2552","-79.7625625","34.1954331",NA
