"","long","lat","city"
"1","-87.9064736","43.0389025","Milwaukee,Wisconsin"
"2","-95.992775","36.1539816","Tulsa,Oklahoma"
"3","-115.1745559","36.1023715","New York,New York"
"4","-75.1196199","39.9259463","Camden,New Jersey"
"5","-118.3531311","33.9616801","Inglewood,California"
"6","-73.5929056","40.7003793","Uniondale,New York"
"7","-71.0588801","42.3600825","Boston,Massachusetts"
"8","-122.4442906","47.2528768","Tacoma,Washington"
"9","-74.1723667","40.735657","Newark,New Jersey"
"10","-86.7816016","36.1626638","Nashville,Tennessee"
"11","-87.6297982","41.8781136","Chicago,Illinois"
"12","-121.8863286","37.3382082","San Jose,California"
"13","-90.1994042","38.6270025","St Louis,Missouri"
"14","-93.0899578","44.9537029","Saint Paul,Minnesota"
"15","-84.5120196","39.1031182","Cincinnati,Ohio"
"16","-82.4571776","27.950575","Tampa,Florida"
"17","-95.9979883","41.2523634","Omaha,Nebraska"
"18","-73.9441579","40.6781784","Brooklyn,New York"
"19","-96.7311034","43.5445959","Sioux Falls,South Dakota"
"20","-80.0548894","26.7104088","West Palm Beach,Florida"
"21","-72.6850932","41.7637111","Hartford,Connecticut"
"22","-85.7584557","38.2526647","Louisville,Kentucky"
"23","-119.7725868","36.7468422","Fresno,California"
"24","-75.977985","36.8529263","Virginia Beach,Virginia"
"25","-79.9958864","40.4406248","Pittsburgh,Pennsylvania"
"26","-80.256595","26.1669711","Sunrise,Florida"
"27","-85.6680863","42.9633599","Grand Rapids,Michigan"
"28","-92.2670941","34.769536","North Little Rock,Arkansas"
"29","-90.0715323","29.9510658","New Orleans,Louisiana"
"30","-78.3886312","42.9011708","Darien Center,New York"
"31","-111.8910474","40.7607793","Salt Lake City,Utah"
"32","-74.4229266","39.3642834","Atlantic City,New Jersey"
"33","-122.3320708","47.6062095","Seattle,Washington"
"34","-118.4003563","34.0736204","Beverly Hills,California"
"35","-77.0368707","38.9071923","Washington,District Of Columbia"
"36","-80.8431267","35.2270869","Charlotte,North Carolina"
"37","-71.2190578","42.0334565","Mansfield,Massachusetts"
"38","-78.6381787","35.7795897","Raleigh,North Carolina"
"39","-118.1445155","34.1477849","Pasadena,California"
"40","-84.3879824","33.7489954","Atlanta,Georgia"
"41","-96.9488945","32.8140177","Irving,Texas"
"42","-75.1652215","39.9525839","Philadelphia,Pennsylvania"
"43","-82.2542834","34.7370639","Simpsonville,South Carolina"
"44","-81.3792365","28.5383355","Orlando,Florida"
"45","-95.4612625","30.1658207","Woodlands,Texas"
"46","-86.158068","39.768403","Indianapolis,Indiana"
"47","-74.0970865","40.833989","East Rutherford,New Jersey"
"48","-97.7430608","30.267153","Austin,Texas"
"49","-97.1080656","32.735687","Arlington,Texas"
"50","-112.1859866","33.5386523","Glendale,Arizona"
"51","-122.4194155","37.7749295","San Francisco,California"
"52","-83.0457538","42.331427","Detroit,Michigan"
"53","-96.7969879","32.7766642","Dallas,Texas"
"54","-122.0838511","37.3860517","Mountain View,California"
"55","-83.0302033","42.5803122","Sterling Heights,Michigan"
"56","-71.2478251","42.0653812","Foxborough,Massachusetts"
"57","-121.9552356","37.3541079","Santa Clara,California"
"58","-104.990251","39.7392358","Denver,Colorado"
"59","-80.244216","36.0998596","Winston Salem,North Carolina"
"60","-80.1917902","25.7616798","Miami,Florida"
"61","-117.1610838","32.715738","San Diego,California"
"62","-81.6943605","41.49932","Cleveland,Ohio"
"63","-118.3286614","34.0928092","Hollywood,California"
"64","-95.3698028","29.7604267","Houston,Texas"
"65","-93.2650108","44.977753","Minneapolis,Minnesota"
"66","-81.655651","30.3321838","Jacksonville,Florida"
"67","-112.0740373","33.4483771","Phoenix,Arizona"
"68","-115.1398296","36.1699412","Las Vegas,Nevada"
"69","-87.8721602","41.9867507","Rosemont,Illinois"
"70","-117.0841955","32.6400541","Chula Vista,California"
"71","-76.6502468","40.2859239","Hershey,Pennsylvania"
"72","-77.3063733","38.8462236","Fairfax,Virginia"
"73","-117.9143012","33.8365932","Anaheim,California"
"74","-82.9987942","39.9611755","Columbus,Ohio"
"75","-78.4766781","38.0293059","Charlottesville,Virginia"
"76","-94.5785667","39.0997265","Kansas City,Missouri"
"77","-95.6349463","29.6196787","Sugar Land,Texas"
"78","-122.6764815","45.5230622","Portland,Oregon"
"79","-119.8558822","47.0790224","George,Washington"
"80","-84.5037164","38.0405837","Lexington,Kentucky"
"81","-117.6508876","34.0633443","Ontario,California"
"82","-121.4943996","38.5815719","Sacramento,California"
"83","-96.6851982","40.8257625","Lincoln,Nebraska"
"84","-106.6055534","35.0853336","Albuquerque,New Mexico"
"85","-90.0489801","35.1495343","Memphis,Tennessee"
"86","-81.4845585","41.1339449","Cuyahoga Falls,Ohio"
"87","-76.8966397","38.9340002","Landover,Maryland"
"88","-98.4936282","29.4241219","San Antonio,Texas"
"89","-79.7919754","36.0726354","Greensboro,North Carolina"
"90","-122.2711137","37.8043637","Oakland,California"
"91","-84.2940899","34.0753762","Alpharetta,Georgia"
"92","-76.1474244","43.0481221","Syracuse,New York"
"93","-87.7932939","41.5731442","Tinley Park,Illinois"
"94","-122.2284532","47.3073228","Auburn,Washington"
"95","-90.4298401","38.7131073","Maryland Heights,Missouri"
"96","-72.1100945","41.4316905","Uncasville,Connecticut"
"97","-86.0085955","40.0455917","Noblesville,Indiana"
"98","-81.0348144","34.0007104","Columbia,South Carolina"
"99","-83.4192941","42.7351196","Clarkston,Michigan"
"100","-82.3940104","34.8526176","Greenville,South Carolina"
"101","-118.7616764","34.1533395","Agoura Hills,California"
"102","-122.7426008","45.815115","Ridgefield,Washington"
"103","-77.5367043","38.723303","Bristow,Virginia"
"104","-122.272747","37.8715926","Berkeley,California"
"105","-93.2650108","44.977753"," Minneapolis,Minnesota"
"106","-84.9877094","32.4609764","Columbus,Georgia"
"107","-93.7321228","32.5159852","Bossier City,Louisiana"
"108","-74.1840322","40.3451095","Holmdel,New Jersey"
"109","-157.8583333","21.3069444","Honolulu,Hawaii"
"110","-118.2436849","34.0522342","Los Angeles,California"
"111","-86.80249","33.5206608","Birmingham,Alabama"
"112","-88.8853078","30.3960318","Biloxi,Mississippi"
"113","-93.0899578","44.9537029","St Paul,Minnesota"
"114","-84.1916069","39.7589478","Dayton,Ohio"
"115","-114.5730208","35.1677771","Laughlin,Nevada"
"116","-73.5101258","40.6837121","Wantagh,New York"
"117","-73.7845651","43.0831301","Saratoga Springs,New York"
"118","-90.5151342","41.5067003","Moline,Illinois"
"119","-98.2630684","26.1003547","Hidalgo,Texas"
"120","-92.0198427","30.2240897","Lafayette,Louisiana"
"121","-83.1499322","42.6583661","Rochester Hills,Michigan"
"122","-80.3928423","40.3820132","Burgettstown,Pennsylvania"
"123","-77.8653126","40.8147955","University Park,Pennsylvania"
"124","-117.8265049","33.6845673","Irvine,California"
"125","-92.7385321","44.5683003","Welch,Minnesota"
"126","-73.7562317","42.6525793","Albany,New York"
"127","-97.5164276","35.4675602","Oklahoma City,Oklahoma"
"128","-119.9399029","38.9624079","Stateline,Nevada"
"129","-90.1994042","38.6270025","St. Louis,Missouri"
"130","-83.555212","41.6639383","Toledo,Ohio"
"131","-75.9268747","40.3356483","Reading,Pennsylvania"
"132","-87.5867598","30.2697033","Orange Beach,Alabama"
"133","-97.8202888","30.505198","Cedar Park,Texas"
"134","-121.4230133","39.0098946","Wheatland,California"
"135","-96.6705503","33.1031744","Allen,Texas"
"136","-79.9748103","32.8546197","North Charleston,South Carolina"
"137","-88.5445447","42.6727927","Elkhorn,Wisconsin"
"138","-72.8230736","41.4570108","Wallingford,Connecticut"
"139","-89.0939952","42.2711311","Rockford,Illinois"
"140","-77.0190228","38.7886944","National Harbor ,Maryland"
"141","-91.6656232","41.9778795","Cedar Rapids,Iowa"
"142","-89.9859158","32.2732024","Brandon,Mississippi"
"143","-96.3971233","33.9924186","Durant,Oklahoma"
"144","-106.7636538","32.3199396","Las Cruces,New Mexico"
"145","-77.2816984","42.887535","Canandaigua,New York"
"146","-123.0867536","44.0520691","Eugene,Oregon"
"147","-80.0547626","37.2934681","Salem,Virginia"
"148","-92.3340724","38.9517053","Columbia,Missouri"
"149","-87.5691735","33.2098407","Tuscaloosa,Alabama"
"150","-75.3704579","40.6259316","Bethlehem,Pennsylvania"
"151","-97.396381","27.8005828","Corpus Christi,Texas"
"152","-116.2146068","43.6187102","Boise,Idaho"
"153","-117.9188221","33.6412156","Costa Mesa,California"
"154","-106.4850217","31.7618778","El Paso,Texas"
"155","-87.5710898","37.9715592","Evansville,Indiana"
"156","-90.0022958","34.9918587","Southaven,Mississippi"
"157","-80.7290559","28.2666258","Viera,Florida"
"158","-95.8608333","41.2619444","Council Bluffs,Iowa"
"159","-99.4803241","27.5305671","Laredo,Texas"
"160","-74.8719284","41.6837659","Bethel,New York"
"161","-121.7405167","38.5449065","Davis,California"
"162","-81.3124341","29.9012437","St Augustine,Florida"
"163","-76.6121893","39.2903848","Baltimore,Maryland"
"164","-94.1185366","36.3320196","Rogers,Arkansas"
"165","-68.7778138","44.8011821","Bangor,Maine"
"166","-97.0328547","47.9252568","Grand Forks,North Dakota"
"167","-94.8835754","39.059726",NA
"168","-91.2395807","43.8013556",NA
"169","-89.4012302","43.0730517",NA
"170","-94.8835754","39.059726",NA
"171","-91.2395807","43.8013556",NA
"172","-89.4012302","43.0730517",NA
"173","-94.8835754","39.059726",NA
"174","-91.2395807","43.8013556",NA
"175","-89.4012302","43.0730517",NA
"176","-94.8835754","39.059726",NA
"177","-91.2395807","43.8013556",NA
"178","-89.4012302","43.0730517",NA
